$GPGGA,120156,5232.08,N,1317.6,E,1,07,1.3,50.6,M,39.2,M,,*71
$GPRMC,120156,A,5232.08,N,1317.6,E,0,200.0,030308,11.2,W,A*22
$GPGGA,120157,5232.08,N,1317.6,E,1,07,1.3,50.6,M,39.2,M,,*70
$GPRMC,120157,A,5232.08,N,1317.6,E,0,200.0,030308,11.2,W,A*23
$GPGGA,120158,5232.08,N,1317.6,E,1,07,1.3,50.6,M,39.2,M,,*7f
$GPRMC,120158,A,5232.08,N,1317.6,E,0,200.0,030308,11.2,W,A*2c
$GPGGA,120159,5232.08,N,1317.6,E,1,07,1.3,50.6,M,39.2,M,,*7e
$GPRMC,120159,A,5232.08,N,1317.6,E,0,200.0,030308,11.2,W,A*2d
$GPGGA,120200,5232.08,N,1317.6,E,1,07,1.3,50.6,M,39.2,M,,*71
$GPRMC,120200,A,5232.08,N,1317.6,E,3.9,200.0,030308,11.2,W,A*36
$GPGGA,120201,5232.08,N,1317.6,E,1,07,1.3,50.6,M,39.2,M,,*70
$GPRMC,120201,A,5232.08,N,1317.6,E,8.7,197.0,030308,11.2,W,A*3f
$GPGGA,120202,5232.07,N,1317.6,E,1,07,1.3,50.6,M,39.2,M,,*7c
$GPRMC,120202,A,5232.07,N,1317.6,E,11.7,215.0,030308,11.2,W,A*02
$GPGGA,120203,5232.07,N,1317.59,E,1,07,1.3,50.6,M,39.2,M,,*47
$GPRMC,120203,A,5232.07,N,1317.59,E,19.4,205.0,030308,11.2,W,A*33
$GPGGA,120204,5232.06,N,1317.59,E,1,07,1.3,50.6,M,39.2,M,,*41
$GPRMC,120204,A,5232.06,N,1317.59,E,19.9,191.0,030308,11.2,W,A*36
$GPGGA,120205,5232.05,N,1317.59,E,1,07,1.3,50.6,M,39.2,M,,*43
$GPRMC,120205,A,5232.05,N,1317.59,E,21.4,166.0,030308,11.2,W,A*3a
$GPGGA,120206,5232.05,N,1317.6,E,1,07,1.3,50.6,M,39.2,M,,*7a
$GPRMC,120206,A,5232.05,N,1317.6,E,19.9,131.0,030308,11.2,W,A*07
$GPGGA,120207,5232.04,N,1317.61,E,1,07,1.3,50.6,M,39.2,M,,*4b
$GPRMC,120207,A,5232.04,N,1317.61,E,18.5,140.0,030308,11.2,W,A*3d
$GPGGA,120208,5232.04,N,1317.62,E,1,07,1.3,50.6,M,39.2,M,,*47
$GPRMC,120208,A,5232.04,N,1317.62,E,17.5,133.0,030308,11.2,W,A*3a
$GPGGA,120209,5232.03,N,1317.62,E,1,07,1.3,50.6,M,39.2,M,,*41
$GPRMC,120209,A,5232.03,N,1317.62,E,17.5,151.0,030308,11.2,W,A*38
$GPGGA,120210,5232.03,N,1317.63,E,1,07,1.3,50.6,M,39.2,M,,*48
$GPRMC,120210,A,5232.03,N,1317.63,E,9.7,161.0,030308,11.2,W,A*0f
$GPGGA,120211,5232.02,N,1317.63,E,1,07,1.3,50.6,M,39.2,M,,*48
$GPRMC,120211,A,5232.02,N,1317.63,E,5.8,168.0,030308,11.2,W,A*05
$GPGGA,120212,5232.02,N,1317.63,E,1,07,1.3,50.6,M,39.2,M,,*4b
$GPRMC,120212,A,5232.02,N,1317.63,E,0,166.0,030308,11.2,W,A*1b
$GPGGA,120213,5232.02,N,1317.63,E,1,07,1.3,50.6,M,39.2,M,,*4a
$GPRMC,120213,A,5232.02,N,1317.63,E,0,166.0,030308,11.2,W,A*1a
$GPGGA,120214,5232.02,N,1317.63,E,1,07,1.3,50.6,M,39.2,M,,*4d
$GPRMC,120214,A,5232.02,N,1317.63,E,0,166.0,030308,11.2,W,A*1d
$GPGGA,120215,5232.01,N,1317.64,E,1,07,1.3,50.6,M,39.2,M,,*48
$GPRMC,120215,A,5232.01,N,1317.64,E,9.7,153.0,030308,11.2,W,A*0e
$GPGGA,120216,5232,N,1317.64,E,1,07,1.3,50.6,M,39.2,M,,*64
$GPRMC,120216,A,5232,N,1317.64,E,19.4,153.0,030308,11.2,W,A*10
$GPGGA,120217,5232,N,1317.65,E,1,07,1.3,50.6,M,39.2,M,,*64
$GPRMC,120217,A,5232,N,1317.65,E,19.4,157.0,030308,11.2,W,A*14
$GPGGA,120218,5231.99,N,1317.65,E,1,07,1.3,50.6,M,39.2,M,,*46
$GPRMC,120218,A,5231.99,N,1317.65,E,19.9,154.0,030308,11.2,W,A*38
$GPGGA,120219,5231.99,N,1317.66,E,1,07,1.3,50.6,M,39.2,M,,*44
$GPRMC,120219,A,5231.99,N,1317.66,E,22.4,156.0,030308,11.2,W,A*3d
$GPGGA,120220,5231.98,N,1317.66,E,1,07,1.3,50.6,M,39.2,M,,*4f
$GPRMC,120220,A,5231.98,N,1317.66,E,21.9,150.0,030308,11.2,W,A*3e
$GPGGA,120221,5231.97,N,1317.67,E,1,07,1.3,50.6,M,39.2,M,,*40
$GPRMC,120221,A,5231.97,N,1317.67,E,22.4,160.0,030308,11.2,W,A*3c
$GPGGA,120222,5231.96,N,1317.67,E,1,07,1.3,50.6,M,39.2,M,,*42
$GPRMC,120222,A,5231.96,N,1317.67,E,23.3,154.0,030308,11.2,W,A*3f
$GPGGA,120223,5231.96,N,1317.68,E,1,07,1.3,50.6,M,39.2,M,,*4c
$GPRMC,120223,A,5231.96,N,1317.68,E,23.3,165.0,030308,11.2,W,A*33
$GPGGA,120224,5231.95,N,1317.68,E,1,07,1.3,50.6,M,39.2,M,,*48
$GPRMC,120224,A,5231.95,N,1317.68,E,23.3,161.0,030308,11.2,W,A*33
$GPGGA,120225,5231.94,N,1317.68,E,1,07,1.3,50.6,M,39.2,M,,*48
$GPRMC,120225,A,5231.94,N,1317.68,E,23.3,160.0,030308,11.2,W,A*32
$GPGGA,120226,5231.94,N,1317.69,E,1,07,1.3,50.6,M,39.2,M,,*4a
$GPRMC,120226,A,5231.94,N,1317.69,E,23.3,155.0,030308,11.2,W,A*36
$GPGGA,120227,5231.93,N,1317.69,E,1,07,1.3,50.6,M,39.2,M,,*4c
$GPRMC,120227,A,5231.93,N,1317.69,E,23.3,157.0,030308,11.2,W,A*32
$GPGGA,120228,5231.92,N,1317.7,E,1,07,1.3,50.6,M,39.2,M,,*7a
$GPRMC,120228,A,5231.92,N,1317.7,E,23.3,159.0,030308,11.2,W,A*0a
$GPGGA,120229,5231.91,N,1317.71,E,1,07,1.3,50.6,M,39.2,M,,*49
$GPRMC,120229,A,5231.91,N,1317.71,E,23.8,157.0,030308,11.2,W,A*3c
$GPGGA,120230,5231.9,N,1317.71,E,1,07,1.3,50.6,M,39.2,M,,*70
$GPRMC,120230,A,5231.9,N,1317.71,E,25.3,158.0,030308,11.2,W,A*07
$GPGGA,120231,5231.9,N,1317.72,E,1,07,1.3,50.6,M,39.2,M,,*72
$GPRMC,120231,A,5231.9,N,1317.72,E,28.2,157.0,030308,11.2,W,A*06
$GPGGA,120232,5231.89,N,1317.72,E,1,07,1.3,50.6,M,39.2,M,,*49
$GPRMC,120232,A,5231.89,N,1317.72,E,29.2,159.0,030308,11.2,W,A*32
$GPGGA,120233,5231.88,N,1317.72,E,1,07,1.3,50.6,M,39.2,M,,*49
$GPRMC,120233,A,5231.88,N,1317.72,E,29.6,165.0,030308,11.2,W,A*39
$GPGGA,120234,5231.87,N,1317.73,E,1,07,1.3,50.6,M,39.2,M,,*40
$GPRMC,120234,A,5231.87,N,1317.73,E,28.7,167.0,030308,11.2,W,A*32
$GPGGA,120235,5231.86,N,1317.73,E,1,07,1.3,50.6,M,39.2,M,,*40
$GPRMC,120235,A,5231.86,N,1317.73,E,28.2,168.0,030308,11.2,W,A*38
$GPGGA,120236,5231.85,N,1317.73,E,1,07,1.3,50.6,M,39.2,M,,*40
$GPRMC,120236,A,5231.85,N,1317.73,E,26.7,168.0,030308,11.2,W,A*33
$GPGGA,120237,5231.84,N,1317.74,E,1,07,1.3,50.6,M,39.2,M,,*47
$GPRMC,120237,A,5231.84,N,1317.74,E,28.2,170.0,030308,11.2,W,A*36
$GPGGA,120238,5231.83,N,1317.74,E,1,07,1.3,50.6,M,39.2,M,,*4f
$GPRMC,120238,A,5231.83,N,1317.74,E,28.7,172.0,030308,11.2,W,A*39
$GPGGA,120239,5231.82,N,1317.74,E,1,07,1.3,50.6,M,39.2,M,,*4f
$GPRMC,120239,A,5231.82,N,1317.74,E,29.2,168.0,030308,11.2,W,A*36
$GPGGA,120240,5231.81,N,1317.75,E,1,07,1.3,50.6,M,39.2,M,,*43
$GPRMC,120240,A,5231.81,N,1317.75,E,28.7,168.0,030308,11.2,W,A*3e
$GPGGA,120241,5231.8,N,1317.75,E,1,07,1.3,50.6,M,39.2,M,,*73
$GPRMC,120241,A,5231.8,N,1317.75,E,28.2,167.0,030308,11.2,W,A*04
$GPGGA,120242,5231.79,N,1317.75,E,1,07,1.3,50.6,M,39.2,M,,*46
$GPRMC,120242,A,5231.79,N,1317.75,E,27.7,170.0,030308,11.2,W,A*3d
$GPGGA,120243,5231.78,N,1317.75,E,1,07,1.3,50.6,M,39.2,M,,*46
$GPRMC,120243,A,5231.78,N,1317.75,E,27.2,169.0,030308,11.2,W,A*30
$GPGGA,120244,5231.77,N,1317.76,E,1,07,1.3,50.6,M,39.2,M,,*4d
$GPRMC,120244,A,5231.77,N,1317.76,E,26.7,165.0,030308,11.2,W,A*33
$GPGGA,120245,5231.76,N,1317.77,E,1,07,1.3,50.6,M,39.2,M,,*4c
$GPRMC,120245,A,5231.76,N,1317.77,E,26.2,153.0,030308,11.2,W,A*32
$GPGGA,120246,5231.75,N,1317.77,E,1,07,1.3,50.6,M,39.2,M,,*4c
$GPRMC,120246,A,5231.75,N,1317.77,E,26.2,156.0,030308,11.2,W,A*37
$GPGGA,120247,5231.75,N,1317.78,E,1,07,1.3,50.6,M,39.2,M,,*42
$GPRMC,120247,A,5231.75,N,1317.78,E,26.2,155.0,030308,11.2,W,A*3a
$GPGGA,120248,5231.74,N,1317.78,E,1,07,1.3,50.6,M,39.2,M,,*4c
$GPRMC,120248,A,5231.74,N,1317.78,E,25.8,151.0,030308,11.2,W,A*39
$GPGGA,120249,5231.74,N,1317.79,E,1,07,1.3,50.6,M,39.2,M,,*4c
$GPRMC,120249,A,5231.74,N,1317.79,E,23.8,150.0,030308,11.2,W,A*3e
$GPGGA,120250,5231.73,N,1317.79,E,1,07,1.3,50.6,M,39.2,M,,*43
$GPRMC,120250,A,5231.73,N,1317.79,E,21.9,166.0,030308,11.2,W,A*37
$GPGGA,120251,5231.72,N,1317.79,E,1,07,1.3,50.6,M,39.2,M,,*43
$GPRMC,120251,A,5231.72,N,1317.79,E,23.3,167.0,030308,11.2,W,A*3e
$GPGGA,120252,5231.71,N,1317.8,E,1,07,1.3,50.6,M,39.2,M,,*75
$GPRMC,120252,A,5231.71,N,1317.8,E,24.8,173.0,030308,11.2,W,A*01
$GPGGA,120253,5231.7,N,1317.8,E,1,07,1.3,50.6,M,39.2,M,,*45
$GPRMC,120253,A,5231.7,N,1317.8,E,24.8,170.0,030308,11.2,W,A*32
$GPGGA,120254,5231.69,N,1317.8,E,1,07,1.3,50.6,M,39.2,M,,*7a
$GPRMC,120254,A,5231.69,N,1317.8,E,24.8,171.0,030308,11.2,W,A*0c
$GPGGA,120255,5231.68,N,1317.8,E,1,07,1.3,50.6,M,39.2,M,,*7a
$GPRMC,120255,A,5231.68,N,1317.8,E,24.8,166.0,030308,11.2,W,A*0a
$GPGGA,120256,5231.68,N,1317.81,E,1,07,1.3,50.6,M,39.2,M,,*48
$GPRMC,120256,A,5231.68,N,1317.81,E,24.9,167.0,030308,11.2,W,A*38
$GPGGA,120257,5231.67,N,1317.81,E,1,07,1.3,50.6,M,39.2,M,,*46
$GPRMC,120257,A,5231.67,N,1317.81,E,28.2,165.0,030308,11.2,W,A*33
$GPGGA,120258,5231.66,N,1317.81,E,1,07,1.3,50.6,M,39.2,M,,*48
$GPRMC,120258,A,5231.66,N,1317.81,E,30.1,165.0,030308,11.2,W,A*37
$GPGGA,120259,5231.65,N,1317.82,E,1,07,1.3,50.6,M,39.2,M,,*49
$GPRMC,120259,A,5231.65,N,1317.82,E,31.6,168.0,030308,11.2,W,A*3d
$GPGGA,120300,5231.64,N,1317.82,E,1,07,1.3,50.6,M,39.2,M,,*45
$GPRMC,120300,A,5231.64,N,1317.82,E,33.0,167.0,030308,11.2,W,A*3a
$GPGGA,120301,5231.63,N,1317.82,E,1,07,1.3,50.6,M,39.2,M,,*43
$GPRMC,120301,A,5231.63,N,1317.82,E,33.0,169.0,030308,11.2,W,A*32
$GPGGA,120302,5231.62,N,1317.83,E,1,07,1.3,50.6,M,39.2,M,,*40
$GPRMC,120302,A,5231.62,N,1317.83,E,33.0,171.0,030308,11.2,W,A*38
$GPGGA,120303,5231.61,N,1317.83,E,1,07,1.3,50.6,M,39.2,M,,*42
$GPRMC,120303,A,5231.61,N,1317.83,E,33.0,168.0,030308,11.2,W,A*32
$GPGGA,120304,5231.6,N,1317.83,E,1,07,1.3,50.6,M,39.2,M,,*74
$GPRMC,120304,A,5231.6,N,1317.83,E,33.0,166.0,030308,11.2,W,A*0a
$GPGGA,120305,5231.59,N,1317.84,E,1,07,1.3,50.6,M,39.2,M,,*48
$GPRMC,120305,A,5231.59,N,1317.84,E,34.5,169.0,030308,11.2,W,A*3b
$GPGGA,120306,5231.58,N,1317.84,E,1,07,1.3,50.6,M,39.2,M,,*4a
$GPRMC,120306,A,5231.58,N,1317.84,E,34.5,165.0,030308,11.2,W,A*35
$GPGGA,120307,5231.57,N,1317.84,E,1,07,1.3,50.6,M,39.2,M,,*44
$GPRMC,120307,A,5231.57,N,1317.84,E,35.5,168.0,030308,11.2,W,A*37
$GPGGA,120308,5231.56,N,1317.85,E,1,07,1.3,50.6,M,39.2,M,,*4b
$GPRMC,120308,A,5231.56,N,1317.85,E,36.0,170.0,030308,11.2,W,A*37
$GPGGA,120309,5231.55,N,1317.85,E,1,07,1.3,50.6,M,39.2,M,,*49
$GPRMC,120309,A,5231.55,N,1317.85,E,35.5,174.0,030308,11.2,W,A*37
$GPGGA,120310,5231.54,N,1317.85,E,1,07,1.3,50.6,M,39.2,M,,*40
$GPRMC,120310,A,5231.54,N,1317.85,E,34.0,168.0,030308,11.2,W,A*37
$GPGGA,120311,5231.53,N,1317.85,E,1,07,1.3,50.6,M,39.2,M,,*46
$GPRMC,120311,A,5231.53,N,1317.85,E,34.0,174.0,030308,11.2,W,A*3c
$GPGGA,120312,5231.52,N,1317.85,E,1,07,1.3,50.6,M,39.2,M,,*44
$GPRMC,120312,A,5231.52,N,1317.85,E,33.0,176.0,030308,11.2,W,A*3b
$GPGGA,120313,5231.51,N,1317.86,E,1,07,1.3,50.6,M,39.2,M,,*45
$GPRMC,120313,A,5231.51,N,1317.86,E,32.6,173.0,030308,11.2,W,A*38
$GPGGA,120314,5231.5,N,1317.86,E,1,07,1.3,50.6,M,39.2,M,,*73
$GPRMC,120314,A,5231.5,N,1317.86,E,31.6,168.0,030308,11.2,W,A*07
$GPGGA,120315,5231.49,N,1317.86,E,1,07,1.3,50.6,M,39.2,M,,*4a
$GPRMC,120315,A,5231.49,N,1317.86,E,29.6,166.0,030308,11.2,W,A*39
$GPGGA,120316,5231.49,N,1317.87,E,1,07,1.3,50.6,M,39.2,M,,*48
$GPRMC,120316,A,5231.49,N,1317.87,E,29.6,165.0,030308,11.2,W,A*38
$GPGGA,120317,5231.48,N,1317.87,E,1,07,1.3,50.6,M,39.2,M,,*48
$GPRMC,120317,A,5231.48,N,1317.87,E,29.6,152.0,030308,11.2,W,A*3c
$GPGGA,120318,5231.47,N,1317.88,E,1,07,1.3,50.6,M,39.2,M,,*47
$GPRMC,120318,A,5231.47,N,1317.88,E,30.6,155.0,030308,11.2,W,A*3c
$GPGGA,120319,5231.46,N,1317.89,E,1,07,1.3,50.6,M,39.2,M,,*46
$GPRMC,120319,A,5231.46,N,1317.89,E,31.6,146.0,030308,11.2,W,A*3e
$GPGGA,120320,5231.45,N,1317.9,E,1,07,1.3,50.6,M,39.2,M,,*77
$GPRMC,120320,A,5231.45,N,1317.9,E,31.6,140.0,030308,11.2,W,A*09
$GPGGA,120321,5231.44,N,1317.91,E,1,07,1.3,50.6,M,39.2,M,,*46
$GPRMC,120321,A,5231.44,N,1317.91,E,31.6,145.0,030308,11.2,W,A*3d
$GPGGA,120322,5231.44,N,1317.92,E,1,07,1.3,50.6,M,39.2,M,,*46
$GPRMC,120322,A,5231.44,N,1317.92,E,31.6,140.0,030308,11.2,W,A*38
$GPGGA,120323,5231.43,N,1317.93,E,1,07,1.3,50.6,M,39.2,M,,*41
$GPRMC,120323,A,5231.43,N,1317.93,E,31.6,143.0,030308,11.2,W,A*3c
$GPGGA,120324,5231.42,N,1317.94,E,1,07,1.3,50.6,M,39.2,M,,*40
$GPRMC,120324,A,5231.42,N,1317.94,E,31.8,144.0,030308,11.2,W,A*34
$GPGGA,120325,5231.41,N,1317.95,E,1,07,1.3,50.6,M,39.2,M,,*43
$GPRMC,120325,A,5231.41,N,1317.95,E,32.1,143.0,030308,11.2,W,A*3a
$GPGGA,120326,5231.4,N,1317.96,E,1,07,1.3,50.6,M,39.2,M,,*72
$GPRMC,120326,A,5231.4,N,1317.96,E,31.1,141.0,030308,11.2,W,A*0a
$GPGGA,120327,5231.39,N,1317.97,E,1,07,1.3,50.6,M,39.2,M,,*4c
$GPRMC,120327,A,5231.39,N,1317.97,E,35.0,143.0,030308,11.2,W,A*33
$GPGGA,120328,5231.39,N,1317.98,E,1,07,1.3,50.6,M,39.2,M,,*4c
$GPRMC,120328,A,5231.39,N,1317.98,E,35.0,148.0,030308,11.2,W,A*38
$GPGGA,120329,5231.38,N,1317.98,E,1,07,1.3,50.6,M,39.2,M,,*4c
$GPRMC,120329,A,5231.38,N,1317.98,E,35.0,143.0,030308,11.2,W,A*33
$GPGGA,120330,5231.38,N,1317.99,E,1,07,1.3,50.6,M,39.2,M,,*45
$GPRMC,120330,A,5231.38,N,1317.99,E,25.3,142.0,030308,11.2,W,A*39
$GPGGA,120331,5231.37,N,1318,E,1,07,1.3,50.6,M,39.2,M,,*6a
$GPRMC,120331,A,5231.37,N,1318,E,15.6,141.0,030308,11.2,W,A*13
$GPGGA,120332,5231.36,N,1318.01,E,1,07,1.3,50.6,M,39.2,M,,*47
$GPRMC,120332,A,5231.36,N,1318.01,E,0,143.0,030308,11.2,W,A*10
$GPGGA,120333,5231.36,N,1318.01,E,1,07,1.3,50.6,M,39.2,M,,*46
$GPRMC,120333,A,5231.36,N,1318.01,E,0,143.0,030308,11.2,W,A*11
$GPGGA,120334,5231.36,N,1318.01,E,1,07,1.3,50.6,M,39.2,M,,*41
$GPRMC,120334,A,5231.36,N,1318.01,E,0,143.0,030308,11.2,W,A*16
$GPGGA,120335,5231.36,N,1318.01,E,1,07,1.3,50.6,M,39.2,M,,*40
$GPRMC,120335,A,5231.36,N,1318.01,E,0,143.0,030308,11.2,W,A*17
$GPGGA,120336,5231.36,N,1318.01,E,1,07,1.3,50.6,M,39.2,M,,*43
$GPRMC,120336,A,5231.36,N,1318.01,E,0,143.0,030308,11.2,W,A*14
$GPGGA,120337,5231.36,N,1318.01,E,1,07,1.3,50.6,M,39.2,M,,*42
$GPRMC,120337,A,5231.36,N,1318.01,E,0,143.0,030308,11.2,W,A*15
$GPGGA,120338,5231.36,N,1318.01,E,1,07,1.3,50.6,M,39.2,M,,*4d
$GPRMC,120338,A,5231.36,N,1318.01,E,0,143.0,030308,11.2,W,A*1a
$GPGGA,120339,5231.36,N,1318.01,E,1,07,1.3,50.6,M,39.2,M,,*4c
$GPRMC,120339,A,5231.36,N,1318.01,E,0,143.0,030308,11.2,W,A*1b
$GPGGA,120340,5231.36,N,1318.01,E,1,07,1.3,50.6,M,39.2,M,,*42
$GPRMC,120340,A,5231.36,N,1318.01,E,0,143.0,030308,11.2,W,A*15
$GPGGA,120341,5231.36,N,1318.01,E,1,07,1.3,50.6,M,39.2,M,,*43
$GPRMC,120341,A,5231.36,N,1318.01,E,0,143.0,030308,11.2,W,A*14
$GPGGA,120342,5231.36,N,1318.01,E,1,07,1.3,50.6,M,39.2,M,,*40
$GPRMC,120342,A,5231.36,N,1318.01,E,0,143.0,030308,11.2,W,A*17
$GPGGA,120343,5231.36,N,1318.01,E,1,07,1.3,50.6,M,39.2,M,,*41
$GPRMC,120343,A,5231.36,N,1318.01,E,0,143.0,030308,11.2,W,A*16
$GPGGA,120344,5231.36,N,1318.01,E,1,07,1.3,50.6,M,39.2,M,,*46
$GPRMC,120344,A,5231.36,N,1318.01,E,0,143.0,030308,11.2,W,A*11
$GPGGA,120345,5231.36,N,1318.01,E,1,07,1.3,50.6,M,39.2,M,,*47
$GPRMC,120345,A,5231.36,N,1318.01,E,0,143.0,030308,11.2,W,A*10
$GPGGA,120346,5231.36,N,1318.01,E,1,07,1.3,50.6,M,39.2,M,,*44
$GPRMC,120346,A,5231.36,N,1318.01,E,0,143.0,030308,11.2,W,A*13
$GPGGA,120347,5231.36,N,1318.01,E,1,07,1.3,50.6,M,39.2,M,,*45
$GPRMC,120347,A,5231.36,N,1318.01,E,0,143.0,030308,11.2,W,A*12
$GPGGA,120348,5231.36,N,1318.01,E,1,07,1.3,50.6,M,39.2,M,,*4a
$GPRMC,120348,A,5231.36,N,1318.01,E,0,143.0,030308,11.2,W,A*1d
$GPGGA,120349,5231.36,N,1318.01,E,1,07,1.3,50.6,M,39.2,M,,*4b
$GPRMC,120349,A,5231.36,N,1318.01,E,10.2,156.0,030308,11.2,W,A*35
$GPGGA,120350,5231.36,N,1318.01,E,1,07,1.3,50.6,M,39.2,M,,*43
$GPRMC,120350,A,5231.36,N,1318.01,E,17.5,149.0,030308,11.2,W,A*33
$GPGGA,120351,5231.35,N,1318.02,E,1,07,1.3,50.6,M,39.2,M,,*42
$GPRMC,120351,A,5231.35,N,1318.02,E,23.3,148.0,030308,11.2,W,A*32
$GPGGA,120352,5231.35,N,1318.02,E,1,07,1.3,50.6,M,39.2,M,,*41
$GPRMC,120352,A,5231.35,N,1318.02,E,29.2,177.0,030308,11.2,W,A*36
$GPGGA,120353,5231.34,N,1318.02,E,1,07,1.3,50.6,M,39.2,M,,*41
$GPRMC,120353,A,5231.34,N,1318.02,E,29.2,189.0,030308,11.2,W,A*37
$GPGGA,120354,5231.34,N,1318.01,E,1,07,1.3,50.6,M,39.2,M,,*45
$GPRMC,120354,A,5231.34,N,1318.01,E,29.2,198.0,030308,11.2,W,A*33
$GPGGA,120355,5231.33,N,1318.01,E,1,07,1.3,50.6,M,39.2,M,,*43
$GPRMC,120355,A,5231.33,N,1318.01,E,29.2,192.0,030308,11.2,W,A*3f
$GPGGA,120356,5231.32,N,1318.01,E,1,07,1.3,50.6,M,39.2,M,,*41
$GPRMC,120356,A,5231.32,N,1318.01,E,35.0,196.0,030308,11.2,W,A*36
$GPGGA,120357,5231.31,N,1318,E,1,07,1.3,50.6,M,39.2,M,,*6c
$GPRMC,120357,A,5231.31,N,1318,E,35.0,202.0,030308,11.2,W,A*15
$GPGGA,120358,5231.3,N,1318,E,1,07,1.3,50.6,M,39.2,M,,*52
$GPRMC,120358,A,5231.3,N,1318,E,27.2,201.0,030308,11.2,W,A*29
$GPGGA,120359,5231.3,N,1317.99,E,1,07,1.3,50.6,M,39.2,M,,*72
$GPRMC,120359,A,5231.3,N,1317.99,E,28.7,196.0,030308,11.2,W,A*0e
$GPGGA,120400,5231.29,N,1317.99,E,1,07,1.3,50.6,M,39.2,M,,*41
$GPRMC,120400,A,5231.29,N,1317.99,E,29.6,200.0,030308,11.2,W,A*31
$GPGGA,120401,5231.28,N,1317.98,E,1,07,1.3,50.6,M,39.2,M,,*40
$GPRMC,120401,A,5231.28,N,1317.98,E,30.6,201.0,030308,11.2,W,A*39
$GPGGA,120402,5231.27,N,1317.98,E,1,07,1.3,50.6,M,39.2,M,,*4c
$GPRMC,120402,A,5231.27,N,1317.98,E,30.1,201.0,030308,11.2,W,A*32
$GPGGA,120403,5231.26,N,1317.97,E,1,07,1.3,50.6,M,39.2,M,,*43
$GPRMC,120403,A,5231.26,N,1317.97,E,29.2,198.0,030308,11.2,W,A*35
$GPGGA,120404,5231.25,N,1317.96,E,1,07,1.3,50.6,M,39.2,M,,*46
$GPRMC,120404,A,5231.25,N,1317.96,E,25.8,199.0,030308,11.2,W,A*37
$GPGGA,120405,5231.24,N,1317.96,E,1,07,1.3,50.6,M,39.2,M,,*46
$GPRMC,120405,A,5231.24,N,1317.96,E,23.8,188.0,030308,11.2,W,A*31
$GPGGA,120406,5231.23,N,1317.96,E,1,07,1.3,50.6,M,39.2,M,,*42
$GPRMC,120406,A,5231.23,N,1317.96,E,22.4,177.0,030308,11.2,W,A*38
$GPGGA,120407,5231.22,N,1317.96,E,1,07,1.3,50.6,M,39.2,M,,*42
$GPRMC,120407,A,5231.22,N,1317.96,E,19.9,174.0,030308,11.2,W,A*3e
$GPGGA,120408,5231.22,N,1317.97,E,1,07,1.3,50.6,M,39.2,M,,*4c
$GPRMC,120408,A,5231.22,N,1317.97,E,11.7,170.0,030308,11.2,W,A*32
$GPGGA,120409,5231.2,N,1317.97,E,1,07,1.3,50.6,M,39.2,M,,*7f
$GPRMC,120409,A,5231.2,N,1317.97,E,0,171.0,030308,11.2,W,A*29
$GPGGA,120410,5231.2,N,1317.97,E,1,07,1.3,50.6,M,39.2,M,,*77
$GPRMC,120410,A,5231.2,N,1317.97,E,0,171.0,030308,11.2,W,A*21
$GPGGA,120411,5231.2,N,1317.97,E,1,07,1.3,50.6,M,39.2,M,,*76
$GPRMC,120411,A,5231.2,N,1317.97,E,0,171.0,030308,11.2,W,A*20
$GPGGA,120412,5231.2,N,1317.97,E,1,07,1.3,50.6,M,39.2,M,,*75
$GPRMC,120412,A,5231.2,N,1317.97,E,0,171.0,030308,11.2,W,A*23
$GPGGA,120413,5231.2,N,1317.97,E,1,07,1.3,50.6,M,39.2,M,,*74
$GPRMC,120413,A,5231.2,N,1317.97,E,0,171.0,030308,11.2,W,A*22
$GPGGA,120414,5231.2,N,1317.97,E,1,07,1.3,50.6,M,39.2,M,,*73
$GPRMC,120414,A,5231.2,N,1317.97,E,0,171.0,030308,11.2,W,A*25
$GPGGA,120415,5231.2,N,1317.97,E,1,07,1.3,50.6,M,39.2,M,,*72
$GPRMC,120415,A,5231.2,N,1317.97,E,0,171.0,030308,11.2,W,A*24
$GPGGA,120416,5231.2,N,1317.97,E,1,07,1.3,50.6,M,39.2,M,,*71
$GPRMC,120416,A,5231.2,N,1317.97,E,0,171.0,030308,11.2,W,A*27
$GPGGA,120417,5231.2,N,1317.97,E,1,07,1.3,50.6,M,39.2,M,,*70
$GPRMC,120417,A,5231.2,N,1317.97,E,0,171.0,030308,11.2,W,A*26
$GPGGA,120418,5231.2,N,1317.97,E,1,07,1.3,50.6,M,39.2,M,,*7f
$GPRMC,120418,A,5231.2,N,1317.97,E,0,171.0,030308,11.2,W,A*29
$GPGGA,120419,5231.2,N,1317.97,E,1,07,1.3,50.6,M,39.2,M,,*7e
$GPRMC,120419,A,5231.2,N,1317.97,E,0,171.0,030308,11.2,W,A*28
$GPGGA,120420,5231.2,N,1317.97,E,1,07,1.3,50.6,M,39.2,M,,*74
$GPRMC,120420,A,5231.2,N,1317.97,E,0,171.0,030308,11.2,W,A*22
$GPGGA,120421,5231.2,N,1317.97,E,1,07,1.3,50.6,M,39.2,M,,*75
$GPRMC,120421,A,5231.2,N,1317.97,E,0,171.0,030308,11.2,W,A*23
$GPGGA,120422,5231.2,N,1317.97,E,1,07,1.3,50.6,M,39.2,M,,*76
$GPRMC,120422,A,5231.2,N,1317.97,E,0,171.0,030308,11.2,W,A*20
$GPGGA,120423,5231.2,N,1317.97,E,1,07,1.3,50.6,M,39.2,M,,*77
$GPRMC,120423,A,5231.2,N,1317.97,E,0,171.0,030308,11.2,W,A*21
$GPGGA,120424,5231.2,N,1317.97,E,1,07,1.3,50.6,M,39.2,M,,*70
$GPRMC,120424,A,5231.2,N,1317.97,E,0,171.0,030308,11.2,W,A*26
$GPGGA,120425,5231.2,N,1317.97,E,1,07,1.3,50.6,M,39.2,M,,*71
$GPRMC,120425,A,5231.2,N,1317.97,E,0,171.0,030308,11.2,W,A*27
$GPGGA,120426,5231.2,N,1317.97,E,1,07,1.3,50.6,M,39.2,M,,*72
$GPRMC,120426,A,5231.2,N,1317.97,E,0,171.0,030308,11.2,W,A*24
$GPGGA,120427,5231.2,N,1317.97,E,1,07,1.3,50.6,M,39.2,M,,*73
$GPRMC,120427,A,5231.2,N,1317.97,E,9.7,149.0,030308,11.2,W,A*3e
$GPGGA,120428,5231.2,N,1317.97,E,1,07,1.3,50.6,M,39.2,M,,*7c
$GPRMC,120428,A,5231.2,N,1317.97,E,13.6,171.0,030308,11.2,W,A*00
$GPGGA,120429,5231.19,N,1317.97,E,1,07,1.3,50.6,M,39.2,M,,*47
$GPRMC,120429,A,5231.19,N,1317.97,E,13.6,172.0,030308,11.2,W,A*38
$GPGGA,120430,5231.19,N,1317.97,E,1,07,1.3,50.6,M,39.2,M,,*4f
$GPRMC,120430,A,5231.19,N,1317.97,E,14.6,177.0,030308,11.2,W,A*32
$GPGGA,120431,5231.18,N,1317.98,E,1,07,1.3,50.6,M,39.2,M,,*40
$GPRMC,120431,A,5231.18,N,1317.98,E,17.5,162.0,030308,11.2,W,A*39
$GPGGA,120432,5231.18,N,1317.98,E,1,07,1.3,50.6,M,39.2,M,,*43
$GPRMC,120432,A,5231.18,N,1317.98,E,23.3,158.0,030308,11.2,W,A*32
$GPGGA,120433,5231.17,N,1317.98,E,1,07,1.3,50.6,M,39.2,M,,*4d
$GPRMC,120433,A,5231.17,N,1317.98,E,23.3,146.0,030308,11.2,W,A*33
$GPGGA,120434,5231.17,N,1317.99,E,1,07,1.3,50.6,M,39.2,M,,*4b
$GPRMC,120434,A,5231.17,N,1317.99,E,23.3,127.0,030308,11.2,W,A*32
$GPGGA,120435,5231.17,N,1318,E,1,07,1.3,50.6,M,39.2,M,,*6b
$GPRMC,120435,A,5231.17,N,1318,E,23.3,121.0,030308,11.2,W,A*14
$GPGGA,120436,5231.16,N,1318.01,E,1,07,1.3,50.6,M,39.2,M,,*46
$GPRMC,120436,A,5231.16,N,1318.01,E,24.8,120.0,030308,11.2,W,A*34
$GPGGA,120437,5231.16,N,1318.02,E,1,07,1.3,50.6,M,39.2,M,,*44
$GPRMC,120437,A,5231.16,N,1318.02,E,26.7,118.0,030308,11.2,W,A*30
$GPGGA,120438,5231.16,N,1318.03,E,1,07,1.3,50.6,M,39.2,M,,*4a
$GPRMC,120438,A,5231.16,N,1318.03,E,28.2,120.0,030308,11.2,W,A*3e
$GPGGA,120439,5231.15,N,1318.04,E,1,07,1.3,50.6,M,39.2,M,,*4f
$GPRMC,120439,A,5231.15,N,1318.04,E,30.1,120.0,030308,11.2,W,A*31
$GPGGA,120440,5231.15,N,1318.05,E,1,07,1.3,50.6,M,39.2,M,,*40
$GPRMC,120440,A,5231.15,N,1318.05,E,31.6,122.0,030308,11.2,W,A*3a
$GPGGA,120441,5231.14,N,1318.07,E,1,07,1.3,50.6,M,39.2,M,,*42
$GPRMC,120441,A,5231.14,N,1318.07,E,32.6,119.0,030308,11.2,W,A*33
$GPGGA,120442,5231.14,N,1318.08,E,1,07,1.3,50.6,M,39.2,M,,*4e
$GPRMC,120442,A,5231.14,N,1318.08,E,33.5,117.0,030308,11.2,W,A*33
$GPGGA,120443,5231.13,N,1318.1,E,1,07,1.3,50.6,M,39.2,M,,*71
$GPRMC,120443,A,5231.13,N,1318.1,E,34.5,118.0,030308,11.2,W,A*04
$GPGGA,120444,5231.13,N,1318.11,E,1,07,1.3,50.6,M,39.2,M,,*47
$GPRMC,120444,A,5231.13,N,1318.11,E,35.5,118.0,030308,11.2,W,A*33
$GPGGA,120445,5231.12,N,1318.12,E,1,07,1.3,50.6,M,39.2,M,,*44
$GPRMC,120445,A,5231.12,N,1318.12,E,36.4,118.0,030308,11.2,W,A*32
$GPGGA,120446,5231.12,N,1318.14,E,1,07,1.3,50.6,M,39.2,M,,*41
$GPRMC,120446,A,5231.12,N,1318.14,E,36.4,115.0,030308,11.2,W,A*3a
$GPGGA,120447,5231.12,N,1318.15,E,1,07,1.3,50.6,M,39.2,M,,*41
$GPRMC,120447,A,5231.12,N,1318.15,E,36.4,121.0,030308,11.2,W,A*3d
$GPGGA,120448,5231.11,N,1318.17,E,1,07,1.3,50.6,M,39.2,M,,*4f
$GPRMC,120448,A,5231.11,N,1318.17,E,36.4,116.0,030308,11.2,W,A*37
$GPGGA,120449,5231.11,N,1318.18,E,1,07,1.3,50.6,M,39.2,M,,*41
$GPRMC,120449,A,5231.11,N,1318.18,E,35.5,116.0,030308,11.2,W,A*3b
$GPGGA,120450,5231.1,N,1318.2,E,1,07,1.3,50.6,M,39.2,M,,*43
$GPRMC,120450,A,5231.1,N,1318.2,E,35.0,117.0,030308,11.2,W,A*3d
$GPGGA,120451,5231.1,N,1318.21,E,1,07,1.3,50.6,M,39.2,M,,*73
$GPRMC,120451,A,5231.1,N,1318.21,E,34.5,115.0,030308,11.2,W,A*0b
$GPGGA,120452,5231.09,N,1318.22,E,1,07,1.3,50.6,M,39.2,M,,*4b
$GPRMC,120452,A,5231.09,N,1318.22,E,33.5,119.0,030308,11.2,W,A*38
$GPGGA,120453,5231.09,N,1318.24,E,1,07,1.3,50.6,M,39.2,M,,*4c
$GPRMC,120453,A,5231.09,N,1318.24,E,32.6,115.0,030308,11.2,W,A*31
$GPGGA,120454,5231.08,N,1318.25,E,1,07,1.3,50.6,M,39.2,M,,*4b
$GPRMC,120454,A,5231.08,N,1318.25,E,32.1,115.0,030308,11.2,W,A*31
$GPGGA,120455,5231.08,N,1318.26,E,1,07,1.3,50.6,M,39.2,M,,*49
$GPRMC,120455,A,5231.08,N,1318.26,E,32.1,115.0,030308,11.2,W,A*33
$GPGGA,120456,5231.08,N,1318.28,E,1,07,1.3,50.6,M,39.2,M,,*44
$GPRMC,120456,A,5231.08,N,1318.28,E,31.1,115.0,030308,11.2,W,A*3d
$GPGGA,120457,5231.07,N,1318.29,E,1,07,1.3,50.6,M,39.2,M,,*4b
$GPRMC,120457,A,5231.07,N,1318.29,E,31.1,114.0,030308,11.2,W,A*33
$GPGGA,120458,5231.07,N,1318.3,E,1,07,1.3,50.6,M,39.2,M,,*7c
$GPRMC,120458,A,5231.07,N,1318.3,E,31.1,117.0,030308,11.2,W,A*07
$GPGGA,120459,5231.07,N,1318.31,E,1,07,1.3,50.6,M,39.2,M,,*4c
$GPRMC,120459,A,5231.07,N,1318.31,E,31.6,116.0,030308,11.2,W,A*31
$GPGGA,120500,5231.06,N,1318.33,E,1,07,1.3,50.6,M,39.2,M,,*42
$GPRMC,120500,A,5231.06,N,1318.33,E,32.1,120.0,030308,11.2,W,A*3e
$GPGGA,120501,5231.06,N,1318.34,E,1,07,1.3,50.6,M,39.2,M,,*44
$GPRMC,120501,A,5231.06,N,1318.34,E,32.6,124.0,030308,11.2,W,A*3b
$GPGGA,120502,5231.05,N,1318.35,E,1,07,1.3,50.6,M,39.2,M,,*45
$GPRMC,120502,A,5231.05,N,1318.35,E,33.0,124.0,030308,11.2,W,A*3d
$GPGGA,120503,5231.05,N,1318.37,E,1,07,1.3,50.6,M,39.2,M,,*46
$GPRMC,120503,A,5231.05,N,1318.37,E,34.0,107.0,030308,11.2,W,A*38
$GPGGA,120504,5231.04,N,1318.38,E,1,07,1.3,50.6,M,39.2,M,,*4f
$GPRMC,120504,A,5231.04,N,1318.38,E,33.5,114.0,030308,11.2,W,A*31
$GPGGA,120505,5231.04,N,1318.39,E,1,07,1.3,50.6,M,39.2,M,,*4f
$GPRMC,120505,A,5231.04,N,1318.39,E,34.0,116.0,030308,11.2,W,A*31
$GPGGA,120506,5231.04,N,1318.41,E,1,07,1.3,50.6,M,39.2,M,,*43
$GPRMC,120506,A,5231.04,N,1318.41,E,34.5,112.0,030308,11.2,W,A*3c
$GPGGA,120507,5231.03,N,1318.42,E,1,07,1.3,50.6,M,39.2,M,,*46
$GPRMC,120507,A,5231.03,N,1318.42,E,35.0,116.0,030308,11.2,W,A*39
$GPGGA,120508,5231.03,N,1318.44,E,1,07,1.3,50.6,M,39.2,M,,*4f
$GPRMC,120508,A,5231.03,N,1318.44,E,35.5,120.0,030308,11.2,W,A*30
$GPGGA,120509,5231.02,N,1318.45,E,1,07,1.3,50.6,M,39.2,M,,*4e
$GPRMC,120509,A,5231.02,N,1318.45,E,35.5,120.0,030308,11.2,W,A*31
$GPGGA,120510,5231.02,N,1318.47,E,1,07,1.3,50.6,M,39.2,M,,*44
$GPRMC,120510,A,5231.02,N,1318.47,E,36.4,120.0,030308,11.2,W,A*39
$GPGGA,120511,5231.01,N,1318.48,E,1,07,1.3,50.6,M,39.2,M,,*49
$GPRMC,120511,A,5231.01,N,1318.48,E,36.0,118.0,030308,11.2,W,A*3b
$GPGGA,120512,5231.01,N,1318.5,E,1,07,1.3,50.6,M,39.2,M,,*73
$GPRMC,120512,A,5231.01,N,1318.5,E,36.4,103.0,030308,11.2,W,A*0f
$GPGGA,120513,5231.01,N,1318.51,E,1,07,1.3,50.6,M,39.2,M,,*43
$GPRMC,120513,A,5231.01,N,1318.51,E,36.4,115.0,030308,11.2,W,A*38
$GPGGA,120514,5231,N,1318.53,E,1,07,1.3,50.6,M,39.2,M,,*69
$GPRMC,120514,A,5231,N,1318.53,E,36.4,125.0,030308,11.2,W,A*11
$GPGGA,120515,5231,N,1318.54,E,1,07,1.3,50.6,M,39.2,M,,*6f
$GPRMC,120515,A,5231,N,1318.54,E,36.0,102.0,030308,11.2,W,A*16
$GPGGA,120516,5230.99,N,1318.56,E,1,07,1.3,50.6,M,39.2,M,,*41
$GPRMC,120516,A,5230.99,N,1318.56,E,35.5,110.0,030308,11.2,W,A*3d
$GPGGA,120517,5230.99,N,1318.57,E,1,07,1.3,50.6,M,39.2,M,,*41
$GPRMC,120517,A,5230.99,N,1318.57,E,34.0,125.0,030308,11.2,W,A*3f
$GPGGA,120518,5230.98,N,1318.58,E,1,07,1.3,50.6,M,39.2,M,,*40
$GPRMC,120518,A,5230.98,N,1318.58,E,33.5,127.0,030308,11.2,W,A*3e
$GPGGA,120519,5230.98,N,1318.6,E,1,07,1.3,50.6,M,39.2,M,,*7a
$GPRMC,120519,A,5230.98,N,1318.6,E,33.5,125.0,030308,11.2,W,A*06
$GPGGA,120520,5230.97,N,1318.61,E,1,07,1.3,50.6,M,39.2,M,,*4e
$GPRMC,120520,A,5230.97,N,1318.61,E,33.0,134.0,030308,11.2,W,A*37
$GPGGA,120521,5230.96,N,1318.63,E,1,07,1.3,50.6,M,39.2,M,,*4c
$GPRMC,120521,A,5230.96,N,1318.63,E,32.6,116.0,030308,11.2,W,A*32
$GPGGA,120522,5230.96,N,1318.64,E,1,07,1.3,50.6,M,39.2,M,,*48
$GPRMC,120522,A,5230.96,N,1318.64,E,31.6,116.0,030308,11.2,W,A*35
$GPGGA,120523,5230.95,N,1318.67,E,1,07,1.3,50.6,M,39.2,M,,*49
$GPRMC,120523,A,5230.95,N,1318.67,E,31.6,120.0,030308,11.2,W,A*31
$GPGGA,120524,5230.95,N,1318.68,E,1,07,1.3,50.6,M,39.2,M,,*41
$GPRMC,120524,A,5230.95,N,1318.68,E,33.0,114.0,030308,11.2,W,A*3a
$GPGGA,120525,5230.94,N,1318.7,E,1,07,1.3,50.6,M,39.2,M,,*78
$GPRMC,120525,A,5230.94,N,1318.7,E,33.0,107.0,030308,11.2,W,A*01
$GPGGA,120526,5230.94,N,1318.71,E,1,07,1.3,50.6,M,39.2,M,,*4a
$GPRMC,120526,A,5230.94,N,1318.71,E,33.0,111.0,030308,11.2,W,A*34
$GPGGA,120527,5230.93,N,1318.74,E,1,07,1.3,50.6,M,39.2,M,,*49
$GPRMC,120527,A,5230.93,N,1318.74,E,33.0,122.0,030308,11.2,W,A*37
$GPGGA,120528,5230.93,N,1318.75,E,1,07,1.3,50.6,M,39.2,M,,*47
$GPRMC,120528,A,5230.93,N,1318.75,E,33.0,102.0,030308,11.2,W,A*3b
$GPGGA,120529,5230.92,N,1318.77,E,1,07,1.3,50.6,M,39.2,M,,*45
$GPRMC,120529,A,5230.92,N,1318.77,E,33.5,116.0,030308,11.2,W,A*39
$GPGGA,120530,5230.92,N,1318.78,E,1,07,1.3,50.6,M,39.2,M,,*42
$GPRMC,120530,A,5230.92,N,1318.78,E,33.5,117.0,030308,11.2,W,A*3f
$GPGGA,120531,5230.91,N,1318.79,E,1,07,1.3,50.6,M,39.2,M,,*41
$GPRMC,120531,A,5230.91,N,1318.79,E,33.0,126.0,030308,11.2,W,A*3b
$GPGGA,120532,5230.91,N,1318.8,E,1,07,1.3,50.6,M,39.2,M,,*74
$GPRMC,120532,A,5230.91,N,1318.8,E,33.0,115.0,030308,11.2,W,A*0e
$GPGGA,120533,5230.91,N,1318.82,E,1,07,1.3,50.6,M,39.2,M,,*47
$GPRMC,120533,A,5230.91,N,1318.82,E,33.0,117.0,030308,11.2,W,A*3f
$GPGGA,120534,5230.9,N,1318.83,E,1,07,1.3,50.6,M,39.2,M,,*70
$GPRMC,120534,A,5230.9,N,1318.83,E,33.0,118.0,030308,11.2,W,A*07
$GPGGA,120535,5230.9,N,1318.84,E,1,07,1.3,50.6,M,39.2,M,,*76
$GPRMC,120535,A,5230.9,N,1318.84,E,31.1,119.0,030308,11.2,W,A*03
$GPGGA,120536,5230.89,N,1318.86,E,1,07,1.3,50.6,M,39.2,M,,*4f
$GPRMC,120536,A,5230.89,N,1318.86,E,28.7,116.0,030308,11.2,W,A*3b
$GPGGA,120537,5230.89,N,1318.87,E,1,07,1.3,50.6,M,39.2,M,,*4f
$GPRMC,120537,A,5230.89,N,1318.87,E,25.3,110.0,030308,11.2,W,A*34
$GPGGA,120538,5230.89,N,1318.88,E,1,07,1.3,50.6,M,39.2,M,,*4f
$GPRMC,120538,A,5230.89,N,1318.88,E,22.4,101.0,030308,11.2,W,A*34
$GPGGA,120539,5230.88,N,1318.88,E,1,07,1.3,50.6,M,39.2,M,,*4f
$GPRMC,120539,A,5230.88,N,1318.88,E,18.0,153.0,030308,11.2,W,A*3e
$GPGGA,120540,5230.88,N,1318.88,E,1,07,1.3,50.6,M,39.2,M,,*41
$GPRMC,120540,A,5230.88,N,1318.88,E,2.9,142.0,030308,11.2,W,A*02
$GPGGA,120541,5230.88,N,1318.89,E,1,07,1.3,50.6,M,39.2,M,,*41
$GPRMC,120541,A,5230.88,N,1318.89,E,0,93.0,030308,11.2,W,A*2a
$GPGGA,120542,5230.88,N,1318.89,E,1,07,1.3,50.6,M,39.2,M,,*42
$GPRMC,120542,A,5230.88,N,1318.89,E,0,93.0,030308,11.2,W,A*29
$GPGGA,120543,5230.88,N,1318.89,E,1,07,1.3,50.6,M,39.2,M,,*43
$GPRMC,120543,A,5230.88,N,1318.89,E,0,93.0,030308,11.2,W,A*28
$GPGGA,120544,5230.88,N,1318.89,E,1,07,1.3,50.6,M,39.2,M,,*44
$GPRMC,120544,A,5230.88,N,1318.89,E,0,93.0,030308,11.2,W,A*2f
$GPGGA,120545,5230.88,N,1318.89,E,1,07,1.3,50.6,M,39.2,M,,*45
$GPRMC,120545,A,5230.88,N,1318.89,E,0,93.0,030308,11.2,W,A*2e
$GPGGA,120546,5230.88,N,1318.89,E,1,07,1.3,50.6,M,39.2,M,,*46
$GPRMC,120546,A,5230.88,N,1318.89,E,0,93.0,030308,11.2,W,A*2d
$GPGGA,120547,5230.88,N,1318.89,E,1,07,1.3,50.6,M,39.2,M,,*47
$GPRMC,120547,A,5230.88,N,1318.89,E,0,93.0,030308,11.2,W,A*2c
$GPGGA,120548,5230.88,N,1318.89,E,1,07,1.3,50.6,M,39.2,M,,*48
$GPRMC,120548,A,5230.88,N,1318.89,E,0,93.0,030308,11.2,W,A*23
$GPGGA,120549,5230.88,N,1318.89,E,1,07,1.3,50.6,M,39.2,M,,*49
$GPRMC,120549,A,5230.88,N,1318.89,E,0,93.0,030308,11.2,W,A*22
$GPGGA,120550,5230.88,N,1318.89,E,1,07,1.3,50.6,M,39.2,M,,*41
$GPRMC,120550,A,5230.88,N,1318.89,E,0,93.0,030308,11.2,W,A*2a
$GPGGA,120551,5230.88,N,1318.89,E,1,07,1.3,50.6,M,39.2,M,,*40
$GPRMC,120551,A,5230.88,N,1318.89,E,0,93.0,030308,11.2,W,A*2b
$GPGGA,120552,5230.88,N,1318.89,E,1,07,1.3,50.6,M,39.2,M,,*43
$GPRMC,120552,A,5230.88,N,1318.89,E,0,93.0,030308,11.2,W,A*28
$GPGGA,120553,5230.88,N,1318.89,E,1,07,1.3,50.6,M,39.2,M,,*42
$GPRMC,120553,A,5230.88,N,1318.89,E,0,93.0,030308,11.2,W,A*29
$GPGGA,120554,5230.88,N,1318.89,E,1,07,1.3,50.6,M,39.2,M,,*45
$GPRMC,120554,A,5230.88,N,1318.89,E,0,93.0,030308,11.2,W,A*2e
$GPGGA,120555,5230.88,N,1318.89,E,1,07,1.3,50.6,M,39.2,M,,*44
$GPRMC,120555,A,5230.88,N,1318.89,E,0,93.0,030308,11.2,W,A*2f
$GPGGA,120556,5230.88,N,1318.89,E,1,07,1.3,50.6,M,39.2,M,,*47
$GPRMC,120556,A,5230.88,N,1318.89,E,0,93.0,030308,11.2,W,A*2c
$GPGGA,120557,5230.88,N,1318.89,E,1,07,1.3,50.6,M,39.2,M,,*46
$GPRMC,120557,A,5230.88,N,1318.89,E,5.3,124.0,030308,11.2,W,A*08
$GPGGA,120558,5230.88,N,1318.9,E,1,07,1.3,50.6,M,39.2,M,,*71
$GPRMC,120558,A,5230.88,N,1318.9,E,17.5,133.0,030308,11.2,W,A*0c
$GPGGA,120559,5230.88,N,1318.9,E,1,07,1.3,50.6,M,39.2,M,,*70
$GPRMC,120559,A,5230.88,N,1318.9,E,23.3,117.0,030308,11.2,W,A*0a
$GPGGA,120600,5230.87,N,1318.92,E,1,07,1.3,50.6,M,39.2,M,,*42
$GPRMC,120600,A,5230.87,N,1318.92,E,25.3,114.0,030308,11.2,W,A*3d
$GPGGA,120601,5230.87,N,1318.93,E,1,07,1.3,50.6,M,39.2,M,,*42
$GPRMC,120601,A,5230.87,N,1318.93,E,31.1,113.0,030308,11.2,W,A*3d
$GPGGA,120602,5230.87,N,1318.94,E,1,07,1.3,50.6,M,39.2,M,,*46
$GPRMC,120602,A,5230.87,N,1318.94,E,35.0,104.0,030308,11.2,W,A*3a
$GPGGA,120603,5230.86,N,1318.95,E,1,07,1.3,50.6,M,39.2,M,,*47
$GPRMC,120603,A,5230.86,N,1318.95,E,38.9,118.0,030308,11.2,W,A*32
$GPGGA,120604,5230.86,N,1318.96,E,1,07,1.3,50.6,M,39.2,M,,*43
$GPRMC,120604,A,5230.86,N,1318.96,E,31.1,109.0,030308,11.2,W,A*37
$GPGGA,120605,5230.86,N,1318.98,E,1,07,1.3,50.6,M,39.2,M,,*4c
$GPRMC,120605,A,5230.86,N,1318.98,E,30.6,116.0,030308,11.2,W,A*30
$GPGGA,120606,5230.85,N,1318.99,E,1,07,1.3,50.6,M,39.2,M,,*4d
$GPRMC,120606,A,5230.85,N,1318.99,E,30.6,107.0,030308,11.2,W,A*31
$GPGGA,120607,5230.85,N,1319,E,1,07,1.3,50.6,M,39.2,M,,*63
$GPRMC,120607,A,5230.85,N,1319,E,30.1,133.0,030308,11.2,W,A*1f
$GPGGA,120608,5230.84,N,1319.01,E,1,07,1.3,50.6,M,39.2,M,,*42
$GPRMC,120608,A,5230.84,N,1319.01,E,30.1,126.0,030308,11.2,W,A*3a
$GPGGA,120609,5230.84,N,1319.03,E,1,07,1.3,50.6,M,39.2,M,,*41
$GPRMC,120609,A,5230.84,N,1319.03,E,31.6,119.0,030308,11.2,W,A*33
$GPGGA,120610,5230.83,N,1319.05,E,1,07,1.3,50.6,M,39.2,M,,*48
$GPRMC,120610,A,5230.83,N,1319.05,E,31.6,121.0,030308,11.2,W,A*31
$GPGGA,120611,5230.83,N,1319.06,E,1,07,1.3,50.6,M,39.2,M,,*4a
$GPRMC,120611,A,5230.83,N,1319.06,E,31.6,109.0,030308,11.2,W,A*39
$GPGGA,120612,5230.83,N,1319.08,E,1,07,1.3,50.6,M,39.2,M,,*47
$GPRMC,120612,A,5230.83,N,1319.08,E,32.1,94.0,030308,11.2,W,A*05
$GPGGA,120613,5230.83,N,1319.09,E,1,07,1.3,50.6,M,39.2,M,,*47
$GPRMC,120613,A,5230.83,N,1319.09,E,32.6,101.0,030308,11.2,W,A*3f
$GPGGA,120614,5230.82,N,1319.11,E,1,07,1.3,50.6,M,39.2,M,,*48
$GPRMC,120614,A,5230.82,N,1319.11,E,33.0,94.0,030308,11.2,W,A*0a
$GPGGA,120615,5230.82,N,1319.12,E,1,07,1.3,50.6,M,39.2,M,,*4a
$GPRMC,120615,A,5230.82,N,1319.12,E,33.0,103.0,030308,11.2,W,A*37
$GPGGA,120616,5230.82,N,1319.14,E,1,07,1.3,50.6,M,39.2,M,,*4f
$GPRMC,120616,A,5230.82,N,1319.14,E,33.0,100.0,030308,11.2,W,A*31
$GPGGA,120617,5230.82,N,1319.15,E,1,07,1.3,50.6,M,39.2,M,,*4f
$GPRMC,120617,A,5230.82,N,1319.15,E,32.1,94.0,030308,11.2,W,A*0d
$GPGGA,120618,5230.81,N,1319.18,E,1,07,1.3,50.6,M,39.2,M,,*4e
$GPRMC,120618,A,5230.81,N,1319.18,E,32.1,115.0,030308,11.2,W,A*34
$GPGGA,120619,5230.81,N,1319.19,E,1,07,1.3,50.6,M,39.2,M,,*4e
$GPRMC,120619,A,5230.81,N,1319.19,E,30.1,113.0,030308,11.2,W,A*30
$GPGGA,120620,5230.81,N,1319.2,E,1,07,1.3,50.6,M,39.2,M,,*7e
$GPRMC,120620,A,5230.81,N,1319.2,E,28.2,107.0,030308,11.2,W,A*0f
$GPGGA,120621,5230.8,N,1319.21,E,1,07,1.3,50.6,M,39.2,M,,*7f
$GPRMC,120621,A,5230.8,N,1319.21,E,25.3,107.0,030308,11.2,W,A*02
$GPGGA,120622,5230.8,N,1319.22,E,1,07,1.3,50.6,M,39.2,M,,*7f
$GPRMC,120622,A,5230.8,N,1319.22,E,21.4,117.0,030308,11.2,W,A*00
$GPGGA,120623,5230.8,N,1319.23,E,1,07,1.3,50.6,M,39.2,M,,*7f
$GPRMC,120623,A,5230.8,N,1319.23,E,0,116.0,030308,11.2,W,A*28
$GPGGA,120624,5230.8,N,1319.23,E,1,07,1.3,50.6,M,39.2,M,,*78
$GPRMC,120624,A,5230.8,N,1319.23,E,0,121.0,030308,11.2,W,A*2b
$GPGGA,120625,5230.8,N,1319.24,E,1,07,1.3,50.6,M,39.2,M,,*7e
$GPRMC,120625,A,5230.8,N,1319.24,E,0,117.0,030308,11.2,W,A*28
$GPGGA,120626,5230.8,N,1319.24,E,1,07,1.3,50.6,M,39.2,M,,*7d
$GPRMC,120626,A,5230.8,N,1319.24,E,0,117.0,030308,11.2,W,A*2b
$GPGGA,120627,5230.8,N,1319.24,E,1,07,1.3,50.6,M,39.2,M,,*7c
$GPRMC,120627,A,5230.8,N,1319.24,E,0,117.0,030308,11.2,W,A*2a
$GPGGA,120628,5230.8,N,1319.24,E,1,07,1.3,50.6,M,39.2,M,,*73
$GPRMC,120628,A,5230.8,N,1319.24,E,0,117.0,030308,11.2,W,A*25
$GPGGA,120629,5230.8,N,1319.24,E,1,07,1.3,50.6,M,39.2,M,,*72
$GPRMC,120629,A,5230.8,N,1319.24,E,0,117.0,030308,11.2,W,A*24
$GPGGA,120630,5230.8,N,1319.24,E,1,07,1.3,50.6,M,39.2,M,,*7a
$GPRMC,120630,A,5230.8,N,1319.24,E,0,117.0,030308,11.2,W,A*2c
$GPGGA,120631,5230.8,N,1319.24,E,1,07,1.3,50.6,M,39.2,M,,*7b
$GPRMC,120631,A,5230.8,N,1319.24,E,0,117.0,030308,11.2,W,A*2d
$GPGGA,120632,5230.8,N,1319.24,E,1,07,1.3,50.6,M,39.2,M,,*78
$GPRMC,120632,A,5230.8,N,1319.24,E,0,117.0,030308,11.2,W,A*2e
$GPGGA,120633,5230.79,N,1319.25,E,1,07,1.3,50.6,M,39.2,M,,*4e
$GPRMC,120633,A,5230.79,N,1319.25,E,1.9,125.0,030308,11.2,W,A*0f
$GPGGA,120634,5230.79,N,1319.25,E,1,07,1.3,50.6,M,39.2,M,,*49
$GPRMC,120634,A,5230.79,N,1319.25,E,11.7,139.0,030308,11.2,W,A*3a
$GPGGA,120635,5230.79,N,1319.25,E,1,07,1.3,50.6,M,39.2,M,,*48
$GPRMC,120635,A,5230.79,N,1319.25,E,11.7,157.0,030308,11.2,W,A*33
$GPGGA,120636,5230.78,N,1319.26,E,1,07,1.3,50.6,M,39.2,M,,*49
$GPRMC,120636,A,5230.78,N,1319.26,E,19.4,163.0,030308,11.2,W,A*3e
$GPGGA,120637,5230.77,N,1319.25,E,1,07,1.3,50.6,M,39.2,M,,*44
$GPRMC,120637,A,5230.77,N,1319.25,E,20.4,196.0,030308,11.2,W,A*33
$GPGGA,120638,5230.77,N,1319.25,E,1,07,1.3,50.6,M,39.2,M,,*4b
$GPRMC,120638,A,5230.77,N,1319.25,E,19.4,200.0,030308,11.2,W,A*3a
$GPGGA,120639,5230.76,N,1319.25,E,1,07,1.3,50.6,M,39.2,M,,*4b
$GPRMC,120639,A,5230.76,N,1319.25,E,20.4,183.0,030308,11.2,W,A*38
$GPGGA,120640,5230.75,N,1319.25,E,1,07,1.3,50.6,M,39.2,M,,*46
$GPRMC,120640,A,5230.75,N,1319.25,E,20.4,175.0,030308,11.2,W,A*3c
$GPGGA,120641,5230.74,N,1319.25,E,1,07,1.3,50.6,M,39.2,M,,*46
$GPRMC,120641,A,5230.74,N,1319.25,E,21.9,163.0,030308,11.2,W,A*37
$GPGGA,120642,5230.74,N,1319.26,E,1,07,1.3,50.6,M,39.2,M,,*46
$GPRMC,120642,A,5230.74,N,1319.26,E,22.8,155.0,030308,11.2,W,A*30
$GPGGA,120643,5230.73,N,1319.26,E,1,07,1.3,50.6,M,39.2,M,,*40
$GPRMC,120643,A,5230.73,N,1319.26,E,22.8,144.0,030308,11.2,W,A*36
$GPGGA,120644,5230.72,N,1319.27,E,1,07,1.3,50.6,M,39.2,M,,*47
$GPRMC,120644,A,5230.72,N,1319.27,E,23.8,139.0,030308,11.2,W,A*3a
$GPGGA,120645,5230.73,N,1319.36,E,1,07,1.3,50.6,M,39.2,M,,*47
$GPRMC,120645,A,5230.73,N,1319.36,E,24.7,85.0,030308,11.2,W,A*04
$GPGGA,120646,5230.74,N,1319.37,E,1,07,1.3,50.6,M,39.2,M,,*42
$GPRMC,120646,A,5230.74,N,1319.37,E,25.8,26.0,030308,11.2,W,A*06
$GPGGA,120647,5230.75,N,1319.38,E,1,07,1.3,50.6,M,39.2,M,,*4d
$GPRMC,120647,A,5230.75,N,1319.38,E,24.8,18.0,030308,11.2,W,A*05
$GPGGA,120648,5230.76,N,1319.38,E,1,07,1.3,50.6,M,39.2,M,,*41
$GPRMC,120648,A,5230.76,N,1319.38,E,24.3,351.0,030308,11.2,W,A*3c
$GPGGA,120649,5230.76,N,1319.37,E,1,07,1.3,50.6,M,39.2,M,,*4f
$GPRMC,120649,A,5230.76,N,1319.37,E,24.8,344.0,030308,11.2,W,A*3d
$GPGGA,120650,5230.77,N,1319.37,E,1,07,1.3,50.6,M,39.2,M,,*46
$GPRMC,120650,A,5230.77,N,1319.37,E,25.8,342.0,030308,11.2,W,A*33
$GPGGA,120651,5230.78,N,1319.36,E,1,07,1.3,50.6,M,39.2,M,,*49
$GPRMC,120651,A,5230.78,N,1319.36,E,26.7,323.0,030308,11.2,W,A*37
$GPGGA,120652,5230.78,N,1319.35,E,1,07,1.3,50.6,M,39.2,M,,*49
$GPRMC,120652,A,5230.78,N,1319.35,E,26.7,313.0,030308,11.2,W,A*34
$GPGGA,120653,5230.79,N,1319.34,E,1,07,1.3,50.6,M,39.2,M,,*48
$GPRMC,120653,A,5230.79,N,1319.34,E,27.7,302.0,030308,11.2,W,A*34
$GPGGA,120654,5230.79,N,1319.33,E,1,07,1.3,50.6,M,39.2,M,,*48
$GPRMC,120654,A,5230.79,N,1319.33,E,27.6,271.0,030308,11.2,W,A*30
$GPGGA,120655,5230.79,N,1319.32,E,1,07,1.3,50.6,M,39.2,M,,*48
$GPRMC,120655,A,5230.79,N,1319.32,E,27.4,278.0,030308,11.2,W,A*3b
$GPGGA,120656,5230.79,N,1319.3,E,1,07,1.3,50.6,M,39.2,M,,*79
$GPRMC,120656,A,5230.79,N,1319.3,E,27.2,274.0,030308,11.2,W,A*00
$GPGGA,120657,5230.79,N,1319.29,E,1,07,1.3,50.6,M,39.2,M,,*40
$GPRMC,120657,A,5230.79,N,1319.29,E,26.2,274.0,030308,11.2,W,A*38
$GPGGA,120658,5230.79,N,1319.28,E,1,07,1.3,50.6,M,39.2,M,,*4e
$GPRMC,120658,A,5230.79,N,1319.28,E,25.8,284.0,030308,11.2,W,A*30
$GPGGA,120659,5230.79,N,1319.27,E,1,07,1.3,50.6,M,39.2,M,,*40
$GPRMC,120659,A,5230.79,N,1319.27,E,26.7,292.0,030308,11.2,W,A*35
$GPGGA,120700,5230.8,N,1319.26,E,1,07,1.3,50.6,M,39.2,M,,*7a
$GPRMC,120700,A,5230.8,N,1319.26,E,28.2,299.0,030308,11.2,W,A*0f
$GPGGA,120701,5230.8,N,1319.24,E,1,07,1.3,50.6,M,39.2,M,,*79
$GPRMC,120701,A,5230.8,N,1319.24,E,29.6,294.0,030308,11.2,W,A*04
$GPGGA,120702,5230.8,N,1319.23,E,1,07,1.3,50.6,M,39.2,M,,*7d
$GPRMC,120702,A,5230.8,N,1319.23,E,30.6,294.0,030308,11.2,W,A*08
$GPGGA,120703,5230.81,N,1319.22,E,1,07,1.3,50.6,M,39.2,M,,*4c
$GPRMC,120703,A,5230.81,N,1319.22,E,33.0,295.0,030308,11.2,W,A*3d
$GPGGA,120704,5230.81,N,1319.2,E,1,07,1.3,50.6,M,39.2,M,,*79
$GPRMC,120704,A,5230.81,N,1319.2,E,34.0,291.0,030308,11.2,W,A*0b
$GPGGA,120705,5230.82,N,1319.19,E,1,07,1.3,50.6,M,39.2,M,,*41
$GPRMC,120705,A,5230.82,N,1319.19,E,35.0,290.0,030308,11.2,W,A*33
$GPGGA,120706,5230.82,N,1319.17,E,1,07,1.3,50.6,M,39.2,M,,*4c
$GPRMC,120706,A,5230.82,N,1319.17,E,35.0,281.0,030308,11.2,W,A*3e
$GPGGA,120707,5230.82,N,1319.16,E,1,07,1.3,50.6,M,39.2,M,,*4c
$GPRMC,120707,A,5230.82,N,1319.16,E,34.5,290.0,030308,11.2,W,A*3a
$GPGGA,120708,5230.82,N,1319.14,E,1,07,1.3,50.6,M,39.2,M,,*41
$GPRMC,120708,A,5230.82,N,1319.14,E,34.0,283.0,030308,11.2,W,A*30
$GPGGA,120709,5230.83,N,1319.13,E,1,07,1.3,50.6,M,39.2,M,,*46
$GPRMC,120709,A,5230.83,N,1319.13,E,33.5,282.0,030308,11.2,W,A*34
$GPGGA,120710,5230.83,N,1319.11,E,1,07,1.3,50.6,M,39.2,M,,*4c
$GPRMC,120710,A,5230.83,N,1319.11,E,31.6,291.0,030308,11.2,W,A*3d
$GPGGA,120711,5230.83,N,1319.1,E,1,07,1.3,50.6,M,39.2,M,,*7c
$GPRMC,120711,A,5230.83,N,1319.1,E,31.6,276.0,030308,11.2,W,A*04
$GPGGA,120712,5230.83,N,1319.09,E,1,07,1.3,50.6,M,39.2,M,,*47
$GPRMC,120712,A,5230.83,N,1319.09,E,31.1,283.0,030308,11.2,W,A*32
$GPGGA,120713,5230.83,N,1319.07,E,1,07,1.3,50.6,M,39.2,M,,*48
$GPRMC,120713,A,5230.83,N,1319.07,E,31.6,285.0,030308,11.2,W,A*3c
$GPGGA,120714,5230.84,N,1319.06,E,1,07,1.3,50.6,M,39.2,M,,*49
$GPRMC,120714,A,5230.84,N,1319.06,E,32.1,288.0,030308,11.2,W,A*34
$GPGGA,120715,5230.84,N,1319.04,E,1,07,1.3,50.6,M,39.2,M,,*4a
$GPRMC,120715,A,5230.84,N,1319.04,E,33.0,294.0,030308,11.2,W,A*3a
$GPGGA,120716,5230.85,N,1319.03,E,1,07,1.3,50.6,M,39.2,M,,*4f
$GPRMC,120716,A,5230.85,N,1319.03,E,33.0,297.0,030308,11.2,W,A*3c
$GPGGA,120717,5230.85,N,1319.02,E,1,07,1.3,50.6,M,39.2,M,,*4f
$GPRMC,120717,A,5230.85,N,1319.02,E,32.6,293.0,030308,11.2,W,A*3f
$GPGGA,120718,5230.85,N,1319,E,1,07,1.3,50.6,M,39.2,M,,*6c
$GPRMC,120718,A,5230.85,N,1319,E,31.1,295.0,030308,11.2,W,A*1e
$GPGGA,120719,5230.86,N,1318.99,E,1,07,1.3,50.6,M,39.2,M,,*41
$GPRMC,120719,A,5230.86,N,1318.99,E,29.2,296.0,030308,11.2,W,A*3a
$GPGGA,120720,5230.86,N,1318.98,E,1,07,1.3,50.6,M,39.2,M,,*4a
$GPRMC,120720,A,5230.86,N,1318.98,E,27.7,301.0,030308,11.2,W,A*35
$GPGGA,120721,5230.86,N,1318.97,E,1,07,1.3,50.6,M,39.2,M,,*44
$GPRMC,120721,A,5230.86,N,1318.97,E,24.8,292.0,030308,11.2,W,A*3c
$GPGGA,120722,5230.87,N,1318.96,E,1,07,1.3,50.6,M,39.2,M,,*47
$GPRMC,120722,A,5230.87,N,1318.96,E,21.9,302.0,030308,11.2,W,A*33
$GPGGA,120723,5230.87,N,1318.95,E,1,07,1.3,50.6,M,39.2,M,,*45
$GPRMC,120723,A,5230.87,N,1318.95,E,11.7,293.0,030308,11.2,W,A*35
$GPGGA,120724,5230.87,N,1318.95,E,1,07,1.3,50.6,M,39.2,M,,*42
$GPRMC,120724,A,5230.87,N,1318.95,E,7.8,300.0,030308,11.2,W,A*01
$GPGGA,120725,5230.87,N,1318.94,E,1,07,1.3,50.6,M,39.2,M,,*42
$GPRMC,120725,A,5230.87,N,1318.94,E,3.9,298.0,030308,11.2,W,A*04
$GPGGA,120726,5230.88,N,1318.94,E,1,07,1.3,50.6,M,39.2,M,,*4e
$GPRMC,120726,A,5230.88,N,1318.94,E,0,305.0,030308,11.2,W,A*19
$GPGGA,120727,5230.88,N,1318.94,E,1,07,1.3,50.6,M,39.2,M,,*4f
$GPRMC,120727,A,5230.88,N,1318.94,E,0,305.0,030308,11.2,W,A*18
$GPGGA,120728,5230.88,N,1318.94,E,1,07,1.3,50.6,M,39.2,M,,*40
$GPRMC,120728,A,5230.88,N,1318.94,E,0,305.0,030308,11.2,W,A*17
$GPGGA,120729,5230.88,N,1318.94,E,1,07,1.3,50.6,M,39.2,M,,*41
$GPRMC,120729,A,5230.88,N,1318.94,E,0,305.0,030308,11.2,W,A*16
$GPGGA,120730,5230.88,N,1318.94,E,1,07,1.3,50.6,M,39.2,M,,*49
$GPRMC,120730,A,5230.88,N,1318.94,E,0,305.0,030308,11.2,W,A*1e
$GPGGA,120731,5230.88,N,1318.94,E,1,07,1.3,50.6,M,39.2,M,,*48
$GPRMC,120731,A,5230.88,N,1318.94,E,0,305.0,030308,11.2,W,A*1f
$GPGGA,120732,5230.88,N,1318.94,E,1,07,1.3,50.6,M,39.2,M,,*4b
$GPRMC,120732,A,5230.88,N,1318.94,E,0,305.0,030308,11.2,W,A*1c
$GPGGA,120733,5230.88,N,1318.94,E,1,07,1.3,50.6,M,39.2,M,,*4a
$GPRMC,120733,A,5230.88,N,1318.94,E,0,305.0,030308,11.2,W,A*1d
$GPGGA,120734,5230.88,N,1318.94,E,1,07,1.3,50.6,M,39.2,M,,*4d
$GPRMC,120734,A,5230.88,N,1318.94,E,0,305.0,030308,11.2,W,A*1a
$GPGGA,120735,5230.88,N,1318.94,E,1,07,1.3,50.6,M,39.2,M,,*4c
$GPRMC,120735,A,5230.88,N,1318.94,E,0,305.0,030308,11.2,W,A*1b
$GPGGA,120736,5230.88,N,1318.94,E,1,07,1.3,50.6,M,39.2,M,,*4f
$GPRMC,120736,A,5230.88,N,1318.94,E,0,305.0,030308,11.2,W,A*18
$GPGGA,120737,5230.88,N,1318.94,E,1,07,1.3,50.6,M,39.2,M,,*4e
$GPRMC,120737,A,5230.88,N,1318.94,E,0,305.0,030308,11.2,W,A*19
$GPGGA,120738,5230.88,N,1318.94,E,1,07,1.3,50.6,M,39.2,M,,*41
$GPRMC,120738,A,5230.88,N,1318.94,E,0,305.0,030308,11.2,W,A*16
$GPGGA,120739,5230.88,N,1318.94,E,1,07,1.3,50.6,M,39.2,M,,*40
$GPRMC,120739,A,5230.88,N,1318.94,E,0,305.0,030308,11.2,W,A*17
$GPGGA,120740,5230.88,N,1318.94,E,1,07,1.3,50.6,M,39.2,M,,*4e
$GPRMC,120740,A,5230.88,N,1318.94,E,0,305.0,030308,11.2,W,A*19
$GPGGA,120741,5230.88,N,1318.94,E,1,07,1.3,50.6,M,39.2,M,,*4f
$GPRMC,120741,A,5230.88,N,1318.94,E,0,305.0,030308,11.2,W,A*18
$GPGGA,120742,5230.88,N,1318.93,E,1,07,1.3,50.6,M,39.2,M,,*4b
$GPRMC,120742,A,5230.88,N,1318.93,E,1.0,295.0,030308,11.2,W,A*0b
$GPGGA,120743,5230.88,N,1318.93,E,1,07,1.3,50.6,M,39.2,M,,*4a
$GPRMC,120743,A,5230.88,N,1318.93,E,3.9,314.0,030308,11.2,W,A*09
$GPGGA,120744,5230.88,N,1318.93,E,1,07,1.3,50.6,M,39.2,M,,*4d
$GPRMC,120744,A,5230.88,N,1318.93,E,11.7,296.0,030308,11.2,W,A*38
$GPGGA,120745,5230.88,N,1318.92,E,1,07,1.3,50.6,M,39.2,M,,*4d
$GPRMC,120745,A,5230.88,N,1318.92,E,15.6,286.0,030308,11.2,W,A*3c
$GPGGA,120746,5230.88,N,1318.92,E,1,07,1.3,50.6,M,39.2,M,,*4e
$GPRMC,120746,A,5230.88,N,1318.92,E,23.3,303.0,030308,11.2,W,A*33
$GPGGA,120747,5230.88,N,1318.91,E,1,07,1.3,50.6,M,39.2,M,,*4c
$GPRMC,120747,A,5230.88,N,1318.91,E,25.3,298.0,030308,11.2,W,A*34
$GPGGA,120748,5230.89,N,1318.9,E,1,07,1.3,50.6,M,39.2,M,,*73
$GPRMC,120748,A,5230.89,N,1318.9,E,29.2,298.0,030308,11.2,W,A*06
$GPGGA,120749,5230.89,N,1318.89,E,1,07,1.3,50.6,M,39.2,M,,*4a
$GPRMC,120749,A,5230.89,N,1318.89,E,29.2,298.0,030308,11.2,W,A*3f
$GPGGA,120750,5230.89,N,1318.88,E,1,07,1.3,50.6,M,39.2,M,,*43
$GPRMC,120750,A,5230.89,N,1318.88,E,29.2,303.0,030308,11.2,W,A*35
$GPGGA,120751,5230.9,N,1318.87,E,1,07,1.3,50.6,M,39.2,M,,*75
$GPRMC,120751,A,5230.9,N,1318.87,E,29.2,300.0,030308,11.2,W,A*00
$GPGGA,120752,5230.9,N,1318.86,E,1,07,1.3,50.6,M,39.2,M,,*77
$GPRMC,120752,A,5230.9,N,1318.86,E,29.2,294.0,030308,11.2,W,A*0e
$GPGGA,120753,5230.9,N,1318.85,E,1,07,1.3,50.6,M,39.2,M,,*75
$GPRMC,120753,A,5230.9,N,1318.85,E,29.2,296.0,030308,11.2,W,A*0e
$GPGGA,120754,5230.91,N,1318.84,E,1,07,1.3,50.6,M,39.2,M,,*42
$GPRMC,120754,A,5230.91,N,1318.84,E,25.3,294.0,030308,11.2,W,A*36
$GPGGA,120755,5230.91,N,1318.83,E,1,07,1.3,50.6,M,39.2,M,,*44
$GPRMC,120755,A,5230.91,N,1318.83,E,25.8,298.0,030308,11.2,W,A*37
$GPGGA,120756,5230.91,N,1318.82,E,1,07,1.3,50.6,M,39.2,M,,*46
$GPRMC,120756,A,5230.91,N,1318.82,E,26.2,293.0,030308,11.2,W,A*37
$GPGGA,120757,5230.92,N,1318.8,E,1,07,1.3,50.6,M,39.2,M,,*76
$GPRMC,120757,A,5230.92,N,1318.8,E,27.2,297.0,030308,11.2,W,A*02
$GPGGA,120758,5230.92,N,1318.79,E,1,07,1.3,50.6,M,39.2,M,,*4f
$GPRMC,120758,A,5230.92,N,1318.79,E,29.2,296.0,030308,11.2,W,A*34
$GPGGA,120759,5230.93,N,1318.77,E,1,07,1.3,50.6,M,39.2,M,,*41
$GPRMC,120759,A,5230.93,N,1318.77,E,35.0,293.0,030308,11.2,W,A*30
$GPGGA,120800,5230.93,N,1318.76,E,1,07,1.3,50.6,M,39.2,M,,*43
$GPRMC,120800,A,5230.93,N,1318.76,E,36.9,300.0,030308,11.2,W,A*33
$GPGGA,120801,5230.94,N,1318.74,E,1,07,1.3,50.6,M,39.2,M,,*47
$GPRMC,120801,A,5230.94,N,1318.74,E,38.9,296.0,030308,11.2,W,A*37
$GPGGA,120802,5230.94,N,1318.73,E,1,07,1.3,50.6,M,39.2,M,,*43
$GPRMC,120802,A,5230.94,N,1318.73,E,38.9,303.0,030308,11.2,W,A*3e
$GPGGA,120803,5230.95,N,1318.71,E,1,07,1.3,50.6,M,39.2,M,,*41
$GPRMC,120803,A,5230.95,N,1318.71,E,38.9,299.0,030308,11.2,W,A*3e
$GPGGA,120804,5230.95,N,1318.69,E,1,07,1.3,50.6,M,39.2,M,,*4f
$GPRMC,120804,A,5230.95,N,1318.69,E,38.9,295.0,030308,11.2,W,A*3c
$GPGGA,120805,5230.96,N,1318.67,E,1,07,1.3,50.6,M,39.2,M,,*43
$GPRMC,120805,A,5230.96,N,1318.67,E,38.9,298.0,030308,11.2,W,A*3d
$GPGGA,120806,5230.96,N,1318.66,E,1,07,1.3,50.6,M,39.2,M,,*41
$GPRMC,120806,A,5230.96,N,1318.66,E,38.9,297.0,030308,11.2,W,A*30
$GPGGA,120807,5230.97,N,1318.65,E,1,07,1.3,50.6,M,39.2,M,,*42
$GPRMC,120807,A,5230.97,N,1318.65,E,38.9,303.0,030308,11.2,W,A*3f
$GPGGA,120808,5230.97,N,1318.64,E,1,07,1.3,50.6,M,39.2,M,,*4c
$GPRMC,120808,A,5230.97,N,1318.64,E,38.9,298.0,030308,11.2,W,A*32
$GPGGA,120809,5230.98,N,1318.62,E,1,07,1.3,50.6,M,39.2,M,,*44
$GPRMC,120809,A,5230.98,N,1318.62,E,26.2,300.0,030308,11.2,W,A*3e
$GPGGA,120810,5230.98,N,1318.61,E,1,07,1.3,50.6,M,39.2,M,,*4f
$GPRMC,120810,A,5230.98,N,1318.61,E,25.8,292.0,030308,11.2,W,A*36
$GPGGA,120811,5230.98,N,1318.6,E,1,07,1.3,50.6,M,39.2,M,,*7f
$GPRMC,120811,A,5230.98,N,1318.6,E,25.8,295.0,030308,11.2,W,A*01
$GPGGA,120812,5230.99,N,1318.59,E,1,07,1.3,50.6,M,39.2,M,,*47
$GPRMC,120812,A,5230.99,N,1318.59,E,23.3,297.0,030308,11.2,W,A*36
$GPGGA,120813,5230.99,N,1318.57,E,1,07,1.3,50.6,M,39.2,M,,*48
$GPRMC,120813,A,5230.99,N,1318.57,E,19.4,297.0,030308,11.2,W,A*37
$GPGGA,120814,5230.99,N,1318.56,E,1,07,1.3,50.6,M,39.2,M,,*4e
$GPRMC,120814,A,5230.99,N,1318.56,E,13.6,295.0,030308,11.2,W,A*3b
$GPGGA,120815,5231,N,1318.55,E,1,07,1.3,50.6,M,39.2,M,,*63
$GPRMC,120815,A,5231,N,1318.55,E,13.6,300.0,030308,11.2,W,A*1b
$GPGGA,120816,5231,N,1318.54,E,1,07,1.3,50.6,M,39.2,M,,*61
$GPRMC,120816,A,5231,N,1318.54,E,13.6,299.0,030308,11.2,W,A*18
$GPGGA,120817,5231.01,N,1318.53,E,1,07,1.3,50.6,M,39.2,M,,*48
$GPRMC,120817,A,5231.01,N,1318.53,E,19.4,298.0,030308,11.2,W,A*38
$GPGGA,120818,5231.01,N,1318.52,E,1,07,1.3,50.6,M,39.2,M,,*46
$GPRMC,120818,A,5231.01,N,1318.52,E,30.6,298.0,030308,11.2,W,A*3f
$GPGGA,120819,5231.01,N,1318.5,E,1,07,1.3,50.6,M,39.2,M,,*75
$GPRMC,120819,A,5231.01,N,1318.5,E,31.1,297.0,030308,11.2,W,A*05
$GPGGA,120820,5231.02,N,1318.49,E,1,07,1.3,50.6,M,39.2,M,,*44
$GPRMC,120820,A,5231.02,N,1318.49,E,31.1,299.0,030308,11.2,W,A*3a
$GPGGA,120821,5231.02,N,1318.48,E,1,07,1.3,50.6,M,39.2,M,,*44
$GPRMC,120821,A,5231.02,N,1318.48,E,31.1,298.0,030308,11.2,W,A*3b
$GPGGA,120822,5231.03,N,1318.47,E,1,07,1.3,50.6,M,39.2,M,,*49
$GPRMC,120822,A,5231.03,N,1318.47,E,30.6,299.0,030308,11.2,W,A*31
$GPGGA,120823,5231.03,N,1318.45,E,1,07,1.3,50.6,M,39.2,M,,*4a
$GPRMC,120823,A,5231.03,N,1318.45,E,30.1,302.0,030308,11.2,W,A*36
$GPGGA,120824,5231.04,N,1318.44,E,1,07,1.3,50.6,M,39.2,M,,*4b
$GPRMC,120824,A,5231.04,N,1318.44,E,30.1,299.0,030308,11.2,W,A*34
$GPGGA,120825,5231.04,N,1318.43,E,1,07,1.3,50.6,M,39.2,M,,*4d
$GPRMC,120825,A,5231.04,N,1318.43,E,35.0,298.0,030308,11.2,W,A*37
$GPGGA,120826,5231.05,N,1318.41,E,1,07,1.3,50.6,M,39.2,M,,*4d
$GPRMC,120826,A,5231.05,N,1318.41,E,35.0,298.0,030308,11.2,W,A*37
$GPGGA,120827,5231.05,N,1318.4,E,1,07,1.3,50.6,M,39.2,M,,*7d
$GPRMC,120827,A,5231.05,N,1318.4,E,27.7,297.0,030308,11.2,W,A*0c
$GPGGA,120828,5231.05,N,1318.38,E,1,07,1.3,50.6,M,39.2,M,,*4d
$GPRMC,120828,A,5231.05,N,1318.38,E,27.2,295.0,030308,11.2,W,A*3b
$GPGGA,120829,5231.06,N,1318.37,E,1,07,1.3,50.6,M,39.2,M,,*40
$GPRMC,120829,A,5231.06,N,1318.37,E,27.2,291.0,030308,11.2,W,A*32
$GPGGA,120830,5231.06,N,1318.36,E,1,07,1.3,50.6,M,39.2,M,,*49
$GPRMC,120830,A,5231.06,N,1318.36,E,25.3,302.0,030308,11.2,W,A*33
$GPGGA,120831,5231.06,N,1318.35,E,1,07,1.3,50.6,M,39.2,M,,*4b
$GPRMC,120831,A,5231.06,N,1318.35,E,23.3,301.0,030308,11.2,W,A*34
$GPGGA,120832,5231.07,N,1318.34,E,1,07,1.3,50.6,M,39.2,M,,*48
$GPRMC,120832,A,5231.07,N,1318.34,E,19.4,295.0,030308,11.2,W,A*35
$GPGGA,120833,5231.07,N,1318.33,E,1,07,1.3,50.6,M,39.2,M,,*4e
$GPRMC,120833,A,5231.07,N,1318.33,E,15.6,297.0,030308,11.2,W,A*3f
$GPGGA,120834,5231.07,N,1318.32,E,1,07,1.3,50.6,M,39.2,M,,*48
$GPRMC,120834,A,5231.07,N,1318.32,E,9.7,300.0,030308,11.2,W,A*0a
$GPGGA,120835,5231.08,N,1318.32,E,1,07,1.3,50.6,M,39.2,M,,*46
$GPRMC,120835,A,5231.08,N,1318.32,E,5.8,300.0,030308,11.2,W,A*07
$GPGGA,120836,5231.08,N,1318.31,E,1,07,1.3,50.6,M,39.2,M,,*46
$GPRMC,120836,A,5231.08,N,1318.31,E,3.9,298.0,030308,11.2,W,A*00
$GPGGA,120837,5231.08,N,1318.31,E,1,07,1.3,50.6,M,39.2,M,,*47
$GPRMC,120837,A,5231.08,N,1318.31,E,1.9,289.0,030308,11.2,W,A*03
$GPGGA,120838,5231.08,N,1318.3,E,1,07,1.3,50.6,M,39.2,M,,*79
$GPRMC,120838,A,5231.08,N,1318.3,E,1.9,300.0,030308,11.2,W,A*3d
$GPGGA,120839,5231.08,N,1318.3,E,1,07,1.3,50.6,M,39.2,M,,*78
$GPRMC,120839,A,5231.08,N,1318.3,E,3.9,285.0,030308,11.2,W,A*32
$GPGGA,120840,5231.08,N,1318.29,E,1,07,1.3,50.6,M,39.2,M,,*4e
$GPRMC,120840,A,5231.08,N,1318.29,E,3.9,285.0,030308,11.2,W,A*04
$GPGGA,120841,5231.08,N,1318.29,E,1,07,1.3,50.6,M,39.2,M,,*4f
$GPRMC,120841,A,5231.08,N,1318.29,E,3.9,312.0,030308,11.2,W,A*0a
$GPGGA,120842,5231.08,N,1318.29,E,1,07,1.3,50.6,M,39.2,M,,*4c
$GPRMC,120842,A,5231.08,N,1318.29,E,1.9,285.0,030308,11.2,W,A*04
$GPGGA,120843,5231.08,N,1318.29,E,1,07,1.3,50.6,M,39.2,M,,*4d
$GPRMC,120843,A,5231.08,N,1318.29,E,0,285.0,030308,11.2,W,A*13
$GPGGA,120844,5231.08,N,1318.29,E,1,07,1.3,50.6,M,39.2,M,,*4a
$GPRMC,120844,A,5231.08,N,1318.29,E,0,285.0,030308,11.2,W,A*14
$GPGGA,120845,5231.08,N,1318.29,E,1,07,1.3,50.6,M,39.2,M,,*4b
$GPRMC,120845,A,5231.08,N,1318.29,E,0,285.0,030308,11.2,W,A*15
$GPGGA,120846,5231.08,N,1318.29,E,1,07,1.3,50.6,M,39.2,M,,*48
$GPRMC,120846,A,5231.08,N,1318.29,E,0,285.0,030308,11.2,W,A*16
$GPGGA,120847,5231.08,N,1318.29,E,1,07,1.3,50.6,M,39.2,M,,*49
$GPRMC,120847,A,5231.08,N,1318.29,E,0,285.0,030308,11.2,W,A*17
$GPGGA,120848,5231.08,N,1318.29,E,1,07,1.3,50.6,M,39.2,M,,*46
$GPRMC,120848,A,5231.08,N,1318.29,E,0,285.0,030308,11.2,W,A*18
$GPGGA,120849,5231.08,N,1318.29,E,1,07,1.3,50.6,M,39.2,M,,*47
$GPRMC,120849,A,5231.08,N,1318.29,E,0,285.0,030308,11.2,W,A*19
$GPGGA,120850,5231.08,N,1318.29,E,1,07,1.3,50.6,M,39.2,M,,*4f
$GPRMC,120850,A,5231.08,N,1318.29,E,0,285.0,030308,11.2,W,A*11
$GPGGA,120851,5231.08,N,1318.29,E,1,07,1.3,50.6,M,39.2,M,,*4e
$GPRMC,120851,A,5231.08,N,1318.29,E,0,285.0,030308,11.2,W,A*10
$GPGGA,120852,5231.08,N,1318.29,E,1,07,1.3,50.6,M,39.2,M,,*4d
$GPRMC,120852,A,5231.08,N,1318.29,E,0,285.0,030308,11.2,W,A*13
$GPGGA,120853,5231.08,N,1318.29,E,1,07,1.3,50.6,M,39.2,M,,*4c
$GPRMC,120853,A,5231.08,N,1318.29,E,0,285.0,030308,11.2,W,A*12
$GPGGA,120854,5231.08,N,1318.29,E,1,07,1.3,50.6,M,39.2,M,,*4b
$GPRMC,120854,A,5231.08,N,1318.29,E,0,285.0,030308,11.2,W,A*15
$GPGGA,120855,5231.08,N,1318.29,E,1,07,1.3,50.6,M,39.2,M,,*4a
$GPRMC,120855,A,5231.08,N,1318.29,E,7.8,285.0,030308,11.2,W,A*05
$GPGGA,120856,5231.08,N,1318.29,E,1,07,1.3,50.6,M,39.2,M,,*49
$GPRMC,120856,A,5231.08,N,1318.29,E,9.7,240.0,030308,11.2,W,A*0e
$GPGGA,120857,5231.08,N,1318.28,E,1,07,1.3,50.6,M,39.2,M,,*49
$GPRMC,120857,A,5231.08,N,1318.28,E,11.7,281.0,030308,11.2,W,A*3a
$GPGGA,120858,5231.09,N,1318.27,E,1,07,1.3,50.6,M,39.2,M,,*48
$GPRMC,120858,A,5231.09,N,1318.27,E,18.0,299.0,030308,11.2,W,A*3c
$GPGGA,120859,5231.09,N,1318.26,E,1,07,1.3,50.6,M,39.2,M,,*48
$GPRMC,120859,A,5231.09,N,1318.26,E,19.9,297.0,030308,11.2,W,A*3a
$GPGGA,120900,5231.09,N,1318.25,E,1,07,1.3,50.6,M,39.2,M,,*46
$GPRMC,120900,A,5231.09,N,1318.25,E,22.4,297.0,030308,11.2,W,A*31
$GPGGA,120901,5231.1,N,1318.24,E,1,07,1.3,50.6,M,39.2,M,,*7e
$GPRMC,120901,A,5231.1,N,1318.24,E,22.8,303.0,030308,11.2,W,A*09
$GPGGA,120902,5231.1,N,1318.23,E,1,07,1.3,50.6,M,39.2,M,,*7a
$GPRMC,120902,A,5231.1,N,1318.23,E,21.9,293.0,030308,11.2,W,A*07
$GPGGA,120903,5231.1,N,1318.22,E,1,07,1.3,50.6,M,39.2,M,,*7a
$GPRMC,120903,A,5231.1,N,1318.22,E,19.0,296.0,030308,11.2,W,A*00
$GPGGA,120904,5231.1,N,1318.21,E,1,07,1.3,50.6,M,39.2,M,,*7e
$GPRMC,120904,A,5231.1,N,1318.21,E,15.1,300.0,030308,11.2,W,A*07
$GPGGA,120905,5231.11,N,1318.2,E,1,07,1.3,50.6,M,39.2,M,,*7f
$GPRMC,120905,A,5231.11,N,1318.2,E,14.6,292.0,030308,11.2,W,A*0a
$GPGGA,120906,5231.11,N,1318.19,E,1,07,1.3,50.6,M,39.2,M,,*46
$GPRMC,120906,A,5231.11,N,1318.19,E,16.0,297.0,030308,11.2,W,A*32
$GPGGA,120907,5231.11,N,1318.18,E,1,07,1.3,50.6,M,39.2,M,,*46
$GPRMC,120907,A,5231.11,N,1318.18,E,19.0,293.0,030308,11.2,W,A*39
$GPGGA,120908,5231.12,N,1318.17,E,1,07,1.3,50.6,M,39.2,M,,*45
$GPRMC,120908,A,5231.12,N,1318.17,E,21.4,297.0,030308,11.2,W,A*31
$GPGGA,120909,5231.12,N,1318.16,E,1,07,1.3,50.6,M,39.2,M,,*45
$GPRMC,120909,A,5231.12,N,1318.16,E,24.3,296.0,030308,11.2,W,A*32
$GPGGA,120910,5231.12,N,1318.15,E,1,07,1.3,50.6,M,39.2,M,,*4e
$GPRMC,120910,A,5231.12,N,1318.15,E,25.8,301.0,030308,11.2,W,A*3c
$GPGGA,120911,5231.13,N,1318.14,E,1,07,1.3,50.6,M,39.2,M,,*4f
$GPRMC,120911,A,5231.13,N,1318.14,E,26.2,303.0,030308,11.2,W,A*36
$GPGGA,120912,5231.13,N,1318.13,E,1,07,1.3,50.6,M,39.2,M,,*4b
$GPRMC,120912,A,5231.13,N,1318.13,E,26.7,299.0,030308,11.2,W,A*35
$GPGGA,120913,5231.14,N,1318.12,E,1,07,1.3,50.6,M,39.2,M,,*4c
$GPRMC,120913,A,5231.14,N,1318.12,E,27.2,299.0,030308,11.2,W,A*36
$GPGGA,120914,5231.14,N,1318.1,E,1,07,1.3,50.6,M,39.2,M,,*79
$GPRMC,120914,A,5231.14,N,1318.1,E,28.2,297.0,030308,11.2,W,A*02
$GPGGA,120915,5231.14,N,1318.09,E,1,07,1.3,50.6,M,39.2,M,,*40
$GPRMC,120915,A,5231.14,N,1318.09,E,29.2,304.0,030308,11.2,W,A*31
$GPGGA,120916,5231.15,N,1318.08,E,1,07,1.3,50.6,M,39.2,M,,*43
$GPRMC,120916,A,5231.15,N,1318.08,E,29.6,302.0,030308,11.2,W,A*30
$GPGGA,120917,5231.15,N,1318.07,E,1,07,1.3,50.6,M,39.2,M,,*4d
$GPRMC,120917,A,5231.15,N,1318.07,E,30.6,305.0,030308,11.2,W,A*31
$GPGGA,120918,5231.16,N,1318.06,E,1,07,1.3,50.6,M,39.2,M,,*40
$GPRMC,120918,A,5231.16,N,1318.06,E,31.6,305.0,030308,11.2,W,A*3d
$GPGGA,120919,5231.16,N,1318.05,E,1,07,1.3,50.6,M,39.2,M,,*42
$GPRMC,120919,A,5231.16,N,1318.05,E,31.6,300.0,030308,11.2,W,A*3a
$GPGGA,120920,5231.17,N,1318.03,E,1,07,1.3,50.6,M,39.2,M,,*4f
$GPRMC,120920,A,5231.17,N,1318.03,E,30.6,298.0,030308,11.2,W,A*36
$GPGGA,120921,5231.17,N,1318.02,E,1,07,1.3,50.6,M,39.2,M,,*4f
$GPRMC,120921,A,5231.17,N,1318.02,E,28.2,296.0,030308,11.2,W,A*35
$GPGGA,120922,5231.17,N,1318.01,E,1,07,1.3,50.6,M,39.2,M,,*4f
$GPRMC,120922,A,5231.17,N,1318.01,E,26.2,293.0,030308,11.2,W,A*3e
$GPGGA,120923,5231.18,N,1318,E,1,07,1.3,50.6,M,39.2,M,,*6e
$GPRMC,120923,A,5231.18,N,1318,E,23.8,299.0,030308,11.2,W,A*1a
$GPGGA,120924,5231.18,N,1317.99,E,1,07,1.3,50.6,M,39.2,M,,*48
$GPRMC,120924,A,5231.18,N,1317.99,E,21.4,298.0,030308,11.2,W,A*33
$GPGGA,120925,5231.19,N,1317.98,E,1,07,1.3,50.6,M,39.2,M,,*49
$GPRMC,120925,A,5231.19,N,1317.98,E,20.4,306.0,030308,11.2,W,A*35
$GPGGA,120926,5231.19,N,1317.98,E,1,07,1.3,50.6,M,39.2,M,,*4a
$GPRMC,120926,A,5231.19,N,1317.98,E,21.9,354.0,030308,11.2,W,A*3d
$GPGGA,120927,5231.21,N,1317.97,E,1,07,1.3,50.6,M,39.2,M,,*4f
$GPRMC,120927,A,5231.21,N,1317.97,E,23.3,349.0,030308,11.2,W,A*3c
$GPGGA,120928,5231.22,N,1317.97,E,1,07,1.3,50.6,M,39.2,M,,*43
$GPRMC,120928,A,5231.22,N,1317.97,E,28.7,352.0,030308,11.2,W,A*35
$GPGGA,120929,5231.23,N,1317.97,E,1,07,1.3,50.6,M,39.2,M,,*43
$GPRMC,120929,A,5231.23,N,1317.97,E,29.6,355.0,030308,11.2,W,A*32
$GPGGA,120930,5231.24,N,1317.97,E,1,07,1.3,50.6,M,39.2,M,,*4c
$GPRMC,120930,A,5231.24,N,1317.97,E,30.1,4.0,030308,11.2,W,A*35
$GPGGA,120931,5231.25,N,1317.97,E,1,07,1.3,50.6,M,39.2,M,,*4c
$GPRMC,120931,A,5231.25,N,1317.97,E,29.6,7.0,030308,11.2,W,A*39
$GPGGA,120932,5231.26,N,1317.98,E,1,07,1.3,50.6,M,39.2,M,,*43
$GPRMC,120932,A,5231.26,N,1317.98,E,31.6,18.0,030308,11.2,W,A*01
$GPGGA,120933,5231.27,N,1317.98,E,1,07,1.3,50.6,M,39.2,M,,*43
$GPRMC,120933,A,5231.27,N,1317.98,E,33.5,20.0,030308,11.2,W,A*0b
$GPGGA,120934,5231.27,N,1317.99,E,1,07,1.3,50.6,M,39.2,M,,*45
$GPRMC,120934,A,5231.27,N,1317.99,E,33.5,22.0,030308,11.2,W,A*0f
$GPGGA,120935,5231.28,N,1317.99,E,1,07,1.3,50.6,M,39.2,M,,*4b
$GPRMC,120935,A,5231.28,N,1317.99,E,32.6,19.0,030308,11.2,W,A*0b
$GPGGA,120936,5231.29,N,1318,E,1,07,1.3,50.6,M,39.2,M,,*68
$GPRMC,120936,A,5231.29,N,1318,E,31.1,23.0,030308,11.2,W,A*25
$GPGGA,120937,5231.3,N,1318,E,1,07,1.3,50.6,M,39.2,M,,*51
$GPRMC,120937,A,5231.3,N,1318,E,31.1,12.0,030308,11.2,W,A*1e
$GPGGA,120938,5231.31,N,1318.01,E,1,07,1.3,50.6,M,39.2,M,,*40
$GPRMC,120938,A,5231.31,N,1318.01,E,29.6,16.0,030308,11.2,W,A*05
$GPGGA,120939,5231.32,N,1318.02,E,1,07,1.3,50.6,M,39.2,M,,*41
$GPRMC,120939,A,5231.32,N,1318.02,E,25.3,21.0,030308,11.2,W,A*09
$GPGGA,120940,5231.33,N,1318.02,E,1,07,1.3,50.6,M,39.2,M,,*4e
$GPRMC,120940,A,5231.33,N,1318.02,E,23.3,16.0,030308,11.2,W,A*04
$GPGGA,120941,5231.34,N,1318.02,E,1,07,1.3,50.6,M,39.2,M,,*48
$GPRMC,120941,A,5231.34,N,1318.02,E,23.3,13.0,030308,11.2,W,A*07
$GPGGA,120942,5231.35,N,1318.02,E,1,07,1.3,50.6,M,39.2,M,,*4a
$GPRMC,120942,A,5231.35,N,1318.02,E,23.3,6.0,030308,11.2,W,A*31
$GPGGA,120943,5231.36,N,1318.02,E,1,07,1.3,50.6,M,39.2,M,,*48
$GPRMC,120943,A,5231.36,N,1318.02,E,20.4,347.0,030308,11.2,W,A*31
$GPGGA,120944,5231.36,N,1318.01,E,1,07,1.3,50.6,M,39.2,M,,*4c
$GPRMC,120944,A,5231.36,N,1318.01,E,24.3,322.0,030308,11.2,W,A*35
$GPGGA,120945,5231.37,N,1318.01,E,1,07,1.3,50.6,M,39.2,M,,*4c
$GPRMC,120945,A,5231.37,N,1318.01,E,26.7,321.0,030308,11.2,W,A*30
$GPGGA,120946,5231.38,N,1318,E,1,07,1.3,50.6,M,39.2,M,,*6f
$GPRMC,120946,A,5231.38,N,1318,E,28.7,320.0,030308,11.2,W,A*1c
$GPGGA,120947,5231.38,N,1317.99,E,1,07,1.3,50.6,M,39.2,M,,*4f
$GPRMC,120947,A,5231.38,N,1317.99,E,30.6,319.0,030308,11.2,W,A*3e
$GPGGA,120948,5231.39,N,1317.98,E,1,07,1.3,50.6,M,39.2,M,,*40
$GPRMC,120948,A,5231.39,N,1317.98,E,32.1,323.0,030308,11.2,W,A*3d
$GPGGA,120949,5231.4,N,1317.97,E,1,07,1.3,50.6,M,39.2,M,,*70
